{"type": "FeatureCollection", "features": [{"type": "Feature", "properties": {"operator": "Tesla", "name": "\u53f0\u5317\u82b1\u535a\u516c\u5712\u8d85\u7d1a\u5145\u96fb\u7ad9", "address": "\u81fa\u5317\u5e02\u4e2d\u5c71\u5340\u7389\u9580\u88571\u865f", "charging_stand_amount": 6, "battery_amount": 0, "vehicle_type": "汽車", "dist": "\u4e2d\u5c71\u5340"}, "geometry": {"type": "Point", "coordinates": [121.5227082, 25.07147252]}}, {"type": "Feature", "properties": {"operator": "Tesla", "name": "\u53f0\u5317\u5167\u6e56\u670d\u52d9\u9ad4\u9a57\u4e2d\u5fc3\u8d85\u7d1a\u5145\u96fb\u7ad9", "address": "\u81fa\u5317\u5e02\u5167\u6e56\u5340\u820a\u5b97\u8def\u4e8c\u6bb51\u865f", "charging_stand_amount": 10, "battery_amount": 0, "vehicle_type": "汽車", "dist": "\u5167\u6e56\u5340"}, "geometry": {"type": "Point", "coordinates": [121.5755657, 25.06703821]}, "id": "1"}, {"type": "Feature", "properties": {"operator": "Tesla", "name": "\u53f0\u5317\u5357\u6e2f\u5c55\u89bd\u99282\u9928\u8d85\u7d1a\u5145\u96fb\u7ad9", "address": "\u81fa\u5317\u5e02\u5357\u6e2f\u5340\u7d93\u8cbf\u4e8c\u8def2\u865f B1F 165-170\u8eca\u4f4d", "charging_stand_amount": 6, "battery_amount": 0, "vehicle_type": "汽車", "dist": "\u5357\u6e2f\u5340"}, "geometry": {"type": "Point", "coordinates": [121.6164475, 25.05608064]}, "id": "2"}, {"type": "Feature", "properties": {"operator": "Tesla", "name": "\u5317\u6295\u96c5\u6a02\u8ed2\u8d85\u7d1a\u5145\u96fb\u7ad9", "address": "\u81fa\u5317\u5e02\u5317\u6295\u5340\u5927\u696d\u8def300\u5df71\u865f B2", "charging_stand_amount": 12, "battery_amount": 0, "vehicle_type": "汽車", "dist": "\u5317\u6295\u5340"}, "geometry": {"type": "Point", "coordinates": [121.4985855, 25.12879916]}, "id": "3"}, {"type": "Feature", "properties": {"operator": "Tesla", "name": "\u81fa\u7063\u5927\u5b78\u8d85\u7d1a\u5145\u96fb\u7ad9", "address": "\u81fa\u5317\u5e02\u5927\u5b89\u5340\u7f85\u65af\u798f\u8def\u56db\u6bb51\u865f", "charging_stand_amount": 6, "battery_amount": 0, "vehicle_type": "汽車", "dist": "\u5927\u5b89\u5340"}, "geometry": {"type": "Point", "coordinates": [121.5383816, 25.02139616]}, "id": "4"}, {"type": "Feature", "properties": {"operator": "Tesla", "name": "\u798f\u6797\u8d85\u7d1a\u5145\u96fb\u7ad9", "address": "\u81fa\u5317\u5e02\u58eb\u6797\u5340\u4e2d\u5c71\u5317\u8def\u4e94\u6bb5465\u865f\u65c1", "charging_stand_amount": 6, "battery_amount": 0, "vehicle_type": "汽車", "dist": "\u58eb\u6797\u5340"}, "geometry": {"type": "Point", "coordinates": [121.5281789, 25.09248224]}, "id": "5"}, {"type": "Feature", "properties": {"operator": "Tesla", "name": "\u677e\u5c71\u8d85\u7d1a\u5145\u96fb\u7ad9", "address": "\u81fa\u5317\u5e02\u4fe1\u7fa9\u5340\u5e02\u6c11\u5927\u9053\u516d\u6bb5246\u865f", "charging_stand_amount": 4, "battery_amount": 0, "vehicle_type": "汽車", "dist": "\u4fe1\u7fa9\u5340"}, "geometry": {"type": "Point", "coordinates": [121.5771059, 25.04908524]}, "id": "6"}, {"type": "Feature", "properties": {"operator": "Tesla", "name": "\u4fe1\u7fa9\u4ea4\u6613\u5ee3\u5834\u5145\u96fb\u7ad9", "address": "\u81fa\u5317\u5e02\u4fe1\u7fa9\u5340\u677e\u4ec1\u8def101\u865fB3\u6a13", "charging_stand_amount": 6, "battery_amount": 0, "vehicle_type": "汽車", "dist": "\u4fe1\u7fa9\u5340"}, "geometry": {"type": "Point", "coordinates": [121.5696672, 25.03658893]}, "id": "7"}, {"type": "Feature", "properties": {"operator": "Tesla", "name": "\u5927\u8449\u9ad8\u5cf6\u5c4b\u5145\u96fb\u7ad9", "address": "\u81fa\u5317\u5e02\u58eb\u6797\u5340\u5fe0\u8aa0\u8def\u4e8c\u6bb555\u865fB2", "charging_stand_amount": 6, "battery_amount": 0, "vehicle_type": "汽車", "dist": "\u58eb\u6797\u5340"}, "geometry": {"type": "Point", "coordinates": [121.5316471, 25.11149056]}, "id": "8"}, {"type": "Feature", "properties": {"operator": "Tesla", "name": "\u53f0\u5317\u842c\u83ef\u5bb6\u6a02\u798f\u6842\u6797\u5e97\u8d85\u7d1a\u5145\u96fb\u7ad9", "address": "\u81fa\u5317\u5e02\u842c\u83ef\u5340\u6842\u6797\u8def1\u865f 7F", "charging_stand_amount": 6, "battery_amount": 0, "vehicle_type": "汽車", "dist": "\u842c\u83ef\u5340"}, "geometry": {"type": "Point", "coordinates": [121.5058635, 25.0378901]}, "id": "9"}, {"type": "Feature", "properties": {"operator": "\u83ef\u57ce\u96fb\u80fd", "name": "\u53f0\u5317\u5927\u5009\u4e45\u548c\u5927\u98ef\u7ad9", "address": "\u81fa\u5317\u5e02\u4e2d\u5c71\u5340\u5357\u4eac\u6771\u8def?\u6bb59\u865f", "charging_stand_amount": 3, "battery_amount": 0, "vehicle_type": "汽車", "dist": "\u4e2d\u5c71\u5340"}, "geometry": {"type": "Point", "coordinates": [121.5237034, 25.05265678]}, "id": "10"}, {"type": "Feature", "properties": {"operator": "\u83ef\u57ce\u96fb\u80fd", "name": "\u53f0\u5317\u65b0\u5149\u5357\u8edf\u7ad9", "address": "\u81fa\u5317\u5e02\u5357\u6e2f\u5340\u7d93\u8cbf\u4e8c\u8def196\u865f", "charging_stand_amount": 4, "battery_amount": 0, "vehicle_type": "汽車", "dist": "\u5357\u6e2f\u5340"}, "geometry": {"type": "Point", "coordinates": [121.6156092, 25.05995211]}, "id": "11"}, {"type": "Feature", "properties": {"operator": "\u83ef\u57ce\u96fb\u80fd", "name": "\u53f0\u65e5\u4ea4\u6d41\u5354\u6703", "address": "\u81fa\u5317\u5e02\u677e\u5c71\u5340\u6176\u57ce\u885728\u865f", "charging_stand_amount": 2, "battery_amount": 0, "vehicle_type": "汽車", "dist": "\u677e\u5c71\u5340"}, "geometry": {"type": "Point", "coordinates": [121.5465297, 25.0542953]}, "id": "12"}, {"type": "Feature", "properties": {"operator": "\u83ef\u57ce\u96fb\u80fd", "name": "\u53f0\u5317\u5167\u6e56\u4e9e\u592a\u7d93\u8cbf\u5ee3\u5834A\u68df\u7ad9", "address": "\u81fa\u5317\u5e02\u5167\u6e56\u5340\u820a\u5b97\u8def\u4e8c\u6bb5187\u865f B2", "charging_stand_amount": 3, "battery_amount": 0, "vehicle_type": "汽車", "dist": "\u5167\u6e56\u5340"}, "geometry": {"type": "Point", "coordinates": [121.5744703, 25.07226474]}, "id": "13"}, {"type": "Feature", "properties": {"operator": "\u83ef\u57ce\u96fb\u80fd", "name": "\u53f0\u5317\u82b1\u5712\u5927\u9152\u5e97", "address": "\u81fa\u5317\u5e02\u4e2d\u6b63\u5340\u4e2d\u83ef\u8def\u4e8c\u6bb51\u865f", "charging_stand_amount": 2, "battery_amount": 0, "vehicle_type": "汽車", "dist": "\u4e2d\u6b63\u5340"}, "geometry": {"type": "Point", "coordinates": [121.5071529, 25.03666211]}, "id": "14"}, {"type": "Feature", "properties": {"operator": "\u83ef\u57ce\u96fb\u80fd", "name": "EVALUE\u5167\u6e56\u65d7\u8266\u7ad9", "address": "\u81fa\u5317\u5e02\u5167\u6e56\u5340\u6c11\u6b0a\u6771\u8def6\u6bb5186-8\u865f", "charging_stand_amount": 21, "battery_amount": 0, "vehicle_type": "汽車", "dist": "\u5167\u6e56\u5340"}, "geometry": {"type": "Point", "coordinates": [121.5945477, 25.06883497]}, "id": "15"}, {"type": "Feature", "properties": {"operator": "\u83ef\u57ce\u96fb\u80fd", "name": "\u7dad\u591a\u9e97\u4e9e\u9152\u5e97", "address": "\u81fa\u5317\u5e02\u4e2d\u5c71\u5340\u656c\u696d\u56db\u8def168\u865f", "charging_stand_amount": 3, "battery_amount": 0, "vehicle_type": "汽車", "dist": "\u4e2d\u5c71\u5340"}, "geometry": {"type": "Point", "coordinates": [121.5602245, 25.08437304]}, "id": "16"}, {"type": "Feature", "properties": {"operator": "\u83ef\u57ce\u96fb\u80fd", "name": "\u53f0\u7cd6\u53f0\u5317\u6703\u9928", "address": "\u81fa\u5317\u5e02\u4e2d\u6b63\u5340\u4e2d\u83ef\u8def?\u6bb539\u865f1\u81f321\u6a13\u53caB1\u81f3B4", "charging_stand_amount": 3, "battery_amount": 0, "vehicle_type": "汽車", "dist": "\u4e2d\u6b63\u5340"}, "geometry": {"type": "Point", "coordinates": [121.5090598, 25.04624327]}, "id": "17"}, {"type": "Feature", "properties": {"operator": "\u83ef\u57ce\u96fb\u80fd", "name": "\u71e6\u5764\u5167\u6e56\u7e3d\u90e8\u7ad9", "address": "\u81fa\u5317\u5e02\u5167\u6e56\u5340\u5824\u9802\u5927\u9053\u4e00\u6bb5331\u865f", "charging_stand_amount": 3, "battery_amount": 0, "vehicle_type": "汽車", "dist": "\u5167\u6e56\u5340"}, "geometry": {"type": "Point", "coordinates": [121.5727366, 25.06392715]}, "id": "18"}, {"type": "Feature", "properties": {"operator": "\u83ef\u57ce\u96fb\u80fd", "name": "\u96c0\u5ba2\u85cf\u5c45_\u53f0\u5317\u967d\u660e\u5c71", "address": "\u81fa\u5317\u5e02\u58eb\u6797\u5340\u683c\u81f4\u8def237\u865f", "charging_stand_amount": 2, "battery_amount": 0, "vehicle_type": "汽車", "dist": "\u58eb\u6797\u5340"}, "geometry": {"type": "Point", "coordinates": [121.5492458, 25.14358466]}, "id": "19"}, {"type": "Feature", "properties": {"operator": "\u83ef\u57ce\u96fb\u80fd", "name": "\u53f0\u5317\u5e02\u4fe1\u7fa9\u4e4b\u661f", "address": "\u81fa\u5317\u5e02\u4fe1\u7fa9\u5340\u677e\u667a\u8def14\u865fB2", "charging_stand_amount": 2, "battery_amount": 0, "vehicle_type": "汽車", "dist": "\u4fe1\u7fa9\u5340"}, "geometry": {"type": "Point", "coordinates": [121.5652506, 25.03156975]}, "id": "20"}, {"type": "Feature", "properties": {"operator": "\u83ef\u57ce\u96fb\u80fd", "name": "\u53f0\u5317\u91d1\u878d\u5927\u6a13\u80a1\u4efd\u6709\u9650\u516c\u53f8(101\u8cfc\u7269\u4e2d\u5fc3)", "address": "\u81fa\u5317\u5e02\u4fe1\u7fa9\u5340\u5e02\u5e9c\u8def45\u865fB4", "charging_stand_amount": 15, "battery_amount": 0, "vehicle_type": "汽車", "dist": "\u4fe1\u7fa9\u5340"}, "geometry": {"type": "Point", "coordinates": [121.5640212, 25.03422911]}, "id": "21"}, {"type": "Feature", "properties": {"operator": "\u570b\u969b\u5bcc\u8c6a\u6c7d\u8eca", "name": "\u65b0\u51f1\u6c7d\u8eca\u4ec1\u611b\u5145\u96fb\u7ad9", "address": "\u81fa\u5317\u5e02\u5927\u5b89\u5340\u65b0\u751f\u5357\u8def?\u6bb5125\u865f", "charging_stand_amount": 6, "battery_amount": 0, "vehicle_type": "汽車", "dist": "\u5927\u5b89\u5340"}, "geometry": {"type": "Point", "coordinates": [121.5335495, 25.03909748]}, "id": "22"}, {"type": "Feature", "properties": {"operator": "\u570b\u969b\u5bcc\u8c6a\u6c7d\u8eca", "name": "\u65b0\u51f1\u6c7d\u8eca\u5167\u6e56\u5145\u96fb\u7ad9", "address": "\u81fa\u5317\u5e02\u5167\u6e56\u5340\u6c11\u6b0a\u6771\u8def\u516d\u6bb517\u865f1\u6a13", "charging_stand_amount": 14, "battery_amount": 0, "vehicle_type": "汽車", "dist": "\u5167\u6e56\u5340"}, "geometry": {"type": "Point", "coordinates": [121.5805047, 25.06829944]}, "id": "23"}, {"type": "Feature", "properties": {"operator": "\u570b\u969b\u5bcc\u8c6a\u6c7d\u8eca", "name": "\u65b0\u51f1\u6c7d\u8eca\u58eb\u6797\u5145\u96fb\u7ad9", "address": "\u81fa\u5317\u5e02\u5317\u6295\u5340\u627f\u5fb7\u8def6\u6bb580\u865f", "charging_stand_amount": 5, "battery_amount": 0, "vehicle_type": "汽車", "dist": "\u5317\u6295\u5340"}, "geometry": {"type": "Point", "coordinates": [121.5129004, 25.10215419]}, "id": "24"}, {"type": "Feature", "properties": {"operator": "\u570b\u969b\u5bcc\u8c6a\u6c7d\u8eca", "name": "\u65b0\u51f1\u6c7d\u8eca\u677e\u6c5f\u5145\u96fb\u7ad9", "address": "\u81fa\u5317\u5e02\u4e2d\u5c71\u5340\u677e\u6c5f\u8def601\u865f", "charging_stand_amount": 4, "battery_amount": 0, "vehicle_type": "汽車", "dist": "\u4e2d\u5c71\u5340"}, "geometry": {"type": "Point", "coordinates": [121.5346274, 25.07080293]}, "id": "25"}, {"type": "Feature", "properties": {"operator": "\u6e90\u9ede\u79d1\u6280", "name": "\u5bb6\u6a02\u798f\u53f0\u5317\u4e09\u6c11\u5e97", "address": "\u81fa\u5317\u5e02\u677e\u5c71\u5340\u4e09\u6c11\u8def160\u865f", "charging_stand_amount": 2, "battery_amount": 0, "vehicle_type": "汽車", "dist": "\u677e\u5c71\u5340"}, "geometry": {"type": "Point", "coordinates": [121.5648457, 25.0618713]}, "id": "26"}, {"type": "Feature", "properties": {"operator": "\u6e90\u9ede\u79d1\u6280", "name": "\u967d\u660e\u5c71\u8349\u5c71\u5c0f\u93ae", "address": "\u81fa\u5317\u5e02\u58eb\u6797\u5340\u570b\u6cf0\u88575\u865f\u659c\u5c0d\u9762\u505c\u8eca\u5834", "charging_stand_amount": 2, "battery_amount": 0, "vehicle_type": "汽車", "dist": "\u58eb\u6797\u5340"}, "geometry": {"type": "Point", "coordinates": [121.5433785, 25.13630007]}, "id": "27"}, {"type": "Feature", "properties": {"operator": "\u6e90\u9ede\u79d1\u6280", "name": "Homiz\u8eca\u9ad4\u5de5\u85dd\u838a\u656c\u5e97", "address": "\u81fa\u5317\u5e02\u4fe1\u7fa9\u5340\u838a\u656c\u8def231\u865f", "charging_stand_amount": 1, "battery_amount": 0, "vehicle_type": "汽車", "dist": "\u4fe1\u7fa9\u5340"}, "geometry": {"type": "Point", "coordinates": [121.5630436, 25.03015914]}, "id": "28"}, {"type": "Feature", "properties": {"operator": "\u6e90\u9ede\u79d1\u6280", "name": "\u53f0\u5317\u4fe1\u7fa9\u5fe0\u99dd\u793e\u5340", "address": "\u81fa\u5317\u5e02\u4fe1\u7fa9\u5340\u57fa\u9686\u8def\u4e00\u6bb5364\u5df720\u865f1\u6a13", "charging_stand_amount": 2, "battery_amount": 0, "vehicle_type": "汽車", "dist": "\u4fe1\u7fa9\u5340"}, "geometry": {"type": "Point", "coordinates": [121.5592747, 25.03541003]}, "id": "29"}, {"type": "Feature", "properties": {"operator": "\u6e90\u9ede\u79d1\u6280", "name": "\u5bb6\u6a02\u798f\u91cd\u6176\u5e97", "address": "\u81fa\u5317\u5e02\u5927\u540c\u5340\u91cd\u6176\u5317\u8def\u4e8c\u6bb5171\u865f4F", "charging_stand_amount": 4, "battery_amount": 0, "vehicle_type": "汽車", "dist": "\u5927\u540c\u5340"}, "geometry": {"type": "Point", "coordinates": [121.513814, 25.05932357]}, "id": "30"}, {"type": "Feature", "properties": {"operator": "\u6e90\u9ede\u79d1\u6280", "name": "\u53f0\u5317\u5927\u5b89\u4e0a\u901a\u505c\u8eca\u5834", "address": "\u81fa\u5317\u5e02\u5927\u5b89\u5340\u5fe0\u5b5d\u8def\u56db\u6bb5146\u5df71\u865fB1", "charging_stand_amount": 1, "battery_amount": 0, "vehicle_type": "汽車", "dist": "\u5927\u5b89\u5340"}, "geometry": {"type": "Point", "coordinates": [121.549848, 25.04122691]}, "id": "31"}, {"type": "Feature", "properties": {"operator": "\u5967\u8fea\u798f\u65af\u6c7d\u8eca", "name": "\u5967\u8fea\u5317\u5340\u80a1\u4efd\u6709\u9650\u516c\u53f8", "address": "\u81fa\u5317\u5e02\u5167\u6e56\u5340\u884c\u5fe0\u8def178\u5df72\u865f", "charging_stand_amount": 2, "battery_amount": 0, "vehicle_type": "汽車", "dist": "\u5167\u6e56\u5340"}, "geometry": {"type": "Point", "coordinates": [121.584155, 25.06697971]}, "id": "32"}, {"type": "Feature", "properties": {"operator": "\u5967\u8fea\u798f\u65af\u6c7d\u8eca", "name": "\u8c50\u4ed5\u6c7d\u8eca\u80a1\u4efd\u6709\u9650\u516c\u53f8", "address": "\u81fa\u5317\u5e02\u4e2d\u5c71\u5340\u6ff1\u6c5f\u8857209\u865f", "charging_stand_amount": 2, "battery_amount": 0, "vehicle_type": "汽車", "dist": "\u4e2d\u5c71\u5340"}, "geometry": {"type": "Point", "coordinates": [121.540562, 25.0728486]}, "id": "33"}, {"type": "Feature", "properties": {"operator": "\u88d5\u96fb\u80fd\u6e90", "name": "YES\u5bb6\u6a02\u798f\u5167\u6e56\u5145\u96fb\u7ad9", "address": "\u81fa\u5317\u5e02\u5167\u6e56\u5340\u6c11\u5584\u885788\u865f", "charging_stand_amount": 2, "battery_amount": 0, "vehicle_type": "汽車", "dist": "\u5167\u6e56\u5340"}, "geometry": {"type": "Point", "coordinates": [121.5758537, 25.06031059]}, "id": "34"}, {"type": "Feature", "properties": {"operator": "\u88d5\u96fb\u80fd\u6e90", "name": "\u4eac\u7ad9\u6642\u5c1a\u5ee3\u5834\u9644\u5c6c\u505c\u8eca\u5834", "address": "\u81fa\u5317\u5e02\u5927\u540c\u5340\u627f\u5fb7\u8def\u4e00\u6bb5\u4e00\u865fB5\u6a13", "charging_stand_amount": 7, "battery_amount": 0, "vehicle_type": "汽車", "dist": "\u5927\u540c\u5340"}, "geometry": {"type": "Point", "coordinates": [121.5170812, 25.05064028]}, "id": "35"}, {"type": "Feature", "properties": {"operator": "\u88d5\u96fb\u80fd\u6e90", "name": "\u9806\u76ca\u6c7d\u8eca\u80a1\u4efd\u6709\u9650\u516c\u53f8(\u5167\u6e56\u71df\u696d\u6240)", "address": "\u81fa\u5317\u5e02\u5167\u6e56\u5340\u6c11\u6b0a\u6771\u8def\u516d\u6bb513-15\u865f", "charging_stand_amount": 1, "battery_amount": 0, "vehicle_type": "汽車", "dist": "\u5167\u6e56\u5340"}, "geometry": {"type": "Point", "coordinates": [121.5801076, 25.06748426]}, "id": "36"}, {"type": "Feature", "properties": {"operator": "\u88d5\u96fb\u80fd\u6e90", "name": "YES \u677e\u83f8\u6587\u5275", "address": "\u81fa\u5317\u5e02\u4fe1\u7fa9\u5340\u83f8\u5ee0\u8def88\u865fB4", "charging_stand_amount": 7, "battery_amount": 0, "vehicle_type": "汽車", "dist": "\u4fe1\u7fa9\u5340"}, "geometry": {"type": "Point", "coordinates": [121.561335, 25.04474597]}, "id": "37"}, {"type": "Feature", "properties": {"operator": "\u88d5\u96fb\u80fd\u6e90", "name": "\u4fdd\u8b49\u8cac\u4efb\u81fa\u5317\u5e02\u53f0\u5317\u5730\u4e0b\u8857\u5834\u5730\u5229\u7528\u5408\u4f5c\u793e", "address": "\u81fa\u5317\u5e02\u5927\u540c\u5340\u912d\u5dde\u8def115\u865f", "charging_stand_amount": 4, "battery_amount": 0, "vehicle_type": "汽車", "dist": "\u5927\u540c\u5340"}, "geometry": {"type": "Point", "coordinates": [121.5157483, 25.04985887]}, "id": "38"}, {"type": "Feature", "properties": {"operator": "TAIL \u7279\u723e\u96fb\u529b", "name": "\u53f0\u5317\u798f\u6797\u7ad9", "address": "\u81fa\u5317\u5e02\u58eb\u6797\u5340\u4e2d\u5c71\u5317\u8def\u4e94\u6bb5465\u865f\u65c1", "charging_stand_amount": 4, "battery_amount": 0, "vehicle_type": "汽車", "dist": "\u58eb\u6797\u5340"}, "geometry": {"type": "Point", "coordinates": [121.5758, 25.06733551]}, "id": "39"}, {"type": "Feature", "properties": {"operator": "TAIL \u7279\u723e\u96fb\u529b", "name": "\u5927\u76f4\u6a02\u7fa4\u7ad9", "address": "\u81fa\u5317\u5e02\u4e2d\u5c71\u5340\u6a02\u7fa4\u4e8c\u8def309\u865f", "charging_stand_amount": 3, "battery_amount": 0, "vehicle_type": "汽車", "dist": "\u4e2d\u5c71\u5340"}, "geometry": {"type": "Point", "coordinates": [121.56189, 25.0804]}, "id": "40"}, {"type": "Feature", "properties": {"operator": "\u666e\u7acb\u65af\u570b\u969b\u958b\u767c", "name": "\u53f0\u5317\u58eb\u6797\u842c\u9e97\u9152\u5e97", "address": "\u81fa\u5317\u5e02\u58eb\u6797\u5340\u4e2d\u5c71\u5317\u8def\u4e94\u6bb5470\u5df78\u865f", "charging_stand_amount": 4, "battery_amount": 0, "vehicle_type": "汽車", "dist": "\u58eb\u6797\u5340"}, "geometry": {"type": "Point", "coordinates": [121.5295076, 25.09329809]}, "id": "41"}, {"type": "Feature", "properties": {"operator": "\u6f84\u6cf1\u79d1\u6280", "name": "\u53f0\u5317\u57ce\u5e02\u8eca\u65c5\u4fe1\u7fa9\u5a01\u79c0\u5f71\u57ceA17\u505c\u8eca\u5834", "address": "\u81fa\u5317\u5e02\u4fe1\u7fa9\u5340\u677e\u58fd\u8def20\u865fB1", "charging_stand_amount": 3, "battery_amount": 0, "vehicle_type": "汽車", "dist": "\u4fe1\u7fa9\u5340"}, "geometry": {"type": "Point", "coordinates": [121.5678914, 25.03552003]}, "id": "42"}, {"type": "Feature", "properties": {"operator": "\u6f84\u6cf1\u79d1\u6280", "name": "uspace SCI\u745e\u5149\u5927\u6a13\u7ad9", "address": "\u81fa\u5317\u5e02\u5167\u6e56\u5340\u57fa\u6e56\u8def3\u5df747\u865f", "charging_stand_amount": 4, "battery_amount": 0, "vehicle_type": "汽車", "dist": "\u5167\u6e56\u5340"}, "geometry": {"type": "Point", "coordinates": [121.5671273, 25.08093921]}, "id": "43"}, {"type": "Feature", "properties": {"operator": "\u6851\u746a\u514b", "name": "\u6d17\u6d0b\u6d0b\u81ea\u52a9\u6d17\u8eca\u677e\u5c71\u7ad9", "address": "\u81fa\u5317\u5e02\u677e\u5c71\u5340\u64ab\u9060\u8857403\u5df723\u865f", "charging_stand_amount": 4, "battery_amount": 0, "vehicle_type": "汽車", "dist": "\u677e\u5c71\u5340"}, "geometry": {"type": "Point", "coordinates": [121.5663374, 25.06654541]}, "id": "44"}, {"type": "Feature", "properties": {"operator": "\u5b85\u96fb", "name": "\u5b85\u96fbChargeSmith\u58eb\u6797\u591c\u5e02", "address": "\u81fa\u5317\u5e02\u58eb\u6797\u5340\u5927\u5317\u8def118\u865f", "charging_stand_amount": 1, "battery_amount": 0, "vehicle_type": "汽車", "dist": "\u58eb\u6797\u5340"}, "geometry": {"type": "Point", "coordinates": [121.5241749, 25.09083074]}, "id": "45"}, {"type": "Feature", "properties": {"operator": "\u5cb3\u6d0b", "name": "\u570b\u7acb\u53f0\u7063\u79d1\u6280\u5927\u5b78", "address": "\u81fa\u5317\u5e02\u5927\u5b89\u5340\u57fa\u9686\u8def\u56db\u6bb543\u865f", "charging_stand_amount": 4, "battery_amount": 0, "vehicle_type": "汽車", "dist": "\u5927\u5b89\u5340"}, "geometry": {"type": "Point", "coordinates": [121.5358066, 25.03489428]}, "id": "46"}, {"type": "Feature", "properties": {"operator": "\u5b9c\u5bb6\u5bb6\u5c45", "name": "IKEA \u5b9c\u5bb6\u5bb6\u5c45 \u5167\u6e56\u5e97", "address": "\u81fa\u5317\u5e02\u5167\u6e56\u5340\u820a\u5b97\u8def\u4e00\u6bb5128\u865f", "charging_stand_amount": 4, "battery_amount": 0, "vehicle_type": "汽車", "dist": "\u5167\u6e56\u5340"}, "geometry": {"type": "Point", "coordinates": [121.5783715, 25.06121125]}, "id": "47"}, {"type": "Feature", "properties": {"operator": "\u9060\u50b3\u96fb\u4fe1", "name": "\u9060\u6771SOGO\u53f0\u5317\u5fa9\u8208\u9928", "address": "\u81fa\u5317\u5e02\u5927\u5b89\u5340\u5fe0\u5b5d\u6771\u8def\u4e09\u6bb5300\u865f", "charging_stand_amount": 8, "battery_amount": 0, "vehicle_type": "汽車", "dist": "\u5927\u5b89\u5340"}, "geometry": {"type": "Point", "coordinates": [121.543795, 25.04126601]}, "id": "48"}, {"type": "Feature", "properties": {"operator": "\u9060\u50b3\u96fb\u4fe1", "name": "\u9060\u6771SOGO\u5929\u6bcd\u9928", "address": "\u81fa\u5317\u5e02\u58eb\u6797\u5340\u4e2d\u5c71\u5317\u8def\u516d\u6bb577\u865f", "charging_stand_amount": 8, "battery_amount": 0, "vehicle_type": "汽車", "dist": "\u58eb\u6797\u5340"}, "geometry": {"type": "Point", "coordinates": [121.5249269, 25.10554887]}, "id": "49"}, {"type": "Feature", "properties": {"operator": "\u65ed\u96fb\u99b3\u79d1\u7814", "name": "U-POWER \u5167\u6e56\u884c\u5fe0\u7ad9", "address": "\u81fa\u5317\u5e02\u5167\u6e56\u5340\u884c\u5fe0\u8def65\u865f", "charging_stand_amount": 4, "battery_amount": 0, "vehicle_type": "汽車", "dist": "\u5167\u6e56\u5340"}, "geometry": {"type": "Point", "coordinates": [121.5787502, 25.06594892]}, "id": "50"}, {"type": "Feature", "properties": {"operator": "\u4e2d\u8208\u96fb\u5de5", "name": "\u53f0\u5317\u5c0f\u5de8\u86cb\u5730\u4e0b\u505c\u8eca\u5834", "address": "\u81fa\u5317\u5e02\u677e\u5c71\u5340\u5357\u4eac\u6771\u8def\u56db\u6bb52\u865f", "charging_stand_amount": 1, "battery_amount": 0, "vehicle_type": "汽車", "dist": "\u677e\u5c71\u5340"}, "geometry": {"type": "Point", "coordinates": [121.5501952, 25.05096754]}, "id": "51"}, {"type": "Feature", "properties": {"operator": "\u4e2d\u8208\u96fb\u5de5", "name": "\u5357\u6e2f\u5c55\u89bd\u99282\u9928", "address": "\u81fa\u5317\u5e02\u5357\u6e2f\u5340\u7d93\u8cbf\u4e8c\u8def2\u865f", "charging_stand_amount": 1, "battery_amount": 0, "vehicle_type": "汽車", "dist": "\u5357\u6e2f\u5340"}, "geometry": {"type": "Point", "coordinates": [121.6160342, 25.05661878]}, "id": "52"}, {"type": "Feature", "properties": {"operator": "\u4e2d\u8208\u96fb\u5de5", "name": "\u5e02\u6c11\u5927\u9053\u505c\u8eca\u5834(\u4e2d\u5c71\u6797\u68ee\u7ad9)(\u4e2d\u6797\u6bb5\u5730\u4e0b\u505c\u8eca\u5834)", "address": "\u81fa\u5317\u5e02\u4e2d\u6b63\u5340\u5e02\u6c11\u5927\u9053\u4e8c\u6bb518\u865f(\u81fa\u5317\u5e02\u4e2d\u5c71\u5340\u6797\u68ee\u5317\u8def302\u865f)", "charging_stand_amount": 2, "battery_amount": 0, "vehicle_type": "汽車", "dist": "\u4e2d\u6b63\u5340\u5e02\u6c11\u5927\u9053\u4e8c\u6bb518\u865f(\u81fa\u5317\u5e02\u4e2d\u5c71\u5340"}, "geometry": {"type": "Point", "coordinates": [121.5229267, 25.04767088]}, "id": "53"}, {"type": "Feature", "properties": {"operator": "\u4e2d\u8208\u96fb\u5de5", "name": "\u5e02\u6c11\u5927\u9053\u505c\u8eca\u5834(\u6797\u68ee\u91d1\u5c71\u7ad9)(\u6797\u91d1\u6bb5\u5730\u4e0b\u505c\u8eca\u5834)", "address": "\u81fa\u5317\u5e02\u4e2d\u5c71\u5340\u5e02\u6c11\u5927\u9053\u6797\u91d1\u6bb5(\u81fa\u5317\u5e02\u4e2d\u5c71\u5340\u5e02\u6c11\u5927\u90532\u6bb5)", "charging_stand_amount": 2, "battery_amount": 0, "vehicle_type": "汽車", "dist": "\u4e2d\u5c71\u5340\u5e02\u6c11\u5927\u9053\u6797\u91d1\u6bb5(\u81fa\u5317\u5e02\u4e2d\u5c71\u5340"}, "geometry": {"type": "Point", "coordinates": [121.5260335, 25.04792172]}, "id": "54"}, {"type": "Feature", "properties": {"operator": "\u4e2d\u8208\u96fb\u5de5", "name": "\u4e2d\u5d19\u9ad8\u4e2d\u5730\u4e0b\u505c\u8eca\u5834", "address": "\u81fa\u5317\u5e02\u677e\u5c71\u5340\u516b\u5fb7\u8def\u56db\u6bb5101\u865f", "charging_stand_amount": 1, "battery_amount": 0, "vehicle_type": "汽車", "dist": "\u677e\u5c71\u5340"}, "geometry": {"type": "Point", "coordinates": [121.5616767, 25.04963284]}, "id": "55"}, {"type": "Feature", "properties": {"operator": "\u4e2d\u8208\u96fb\u5de5", "name": "\u5076\u6232\u535a\u7269\u9928\u5730\u4e0b\u505c\u8eca\u5834", "address": "\u81fa\u5317\u5e02\u677e\u5c71\u5340\u5e02\u6c11\u5927\u9053\u4e94\u6bb599\u865f", "charging_stand_amount": 1, "battery_amount": 0, "vehicle_type": "汽車", "dist": "\u677e\u5c71\u5340"}, "geometry": {"type": "Point", "coordinates": [121.562162, 25.04798408]}, "id": "56"}, {"type": "Feature", "properties": {"operator": "\u4e2d\u8208\u96fb\u5de5", "name": "\u50d1\u5b89\u5730\u4e0b\u505c\u8eca\u5834", "address": "\u81fa\u5317\u5e02\u5927\u5b89\u5340\u5fe0\u5b5d\u6771\u8def\u56db\u6bb5306\u865fB1", "charging_stand_amount": 1, "battery_amount": 0, "vehicle_type": "汽車", "dist": "\u5927\u5b89\u5340"}, "geometry": {"type": "Point", "coordinates": [121.5566367, 25.04129147]}, "id": "57"}, {"type": "Feature", "properties": {"operator": "\u4e2d\u8208\u96fb\u5de5", "name": "\u6606\u660e\u5730\u4e0b\u505c\u8eca\u5834(\u4e9e\u66fc\u5c3c\u5927\u6a13)", "address": "\u81fa\u5317\u5e02\u842c\u83ef\u5340\u6606\u660e\u885746\u865fB1", "charging_stand_amount": 1, "battery_amount": 0, "vehicle_type": "汽車", "dist": "\u842c\u83ef\u5340"}, "geometry": {"type": "Point", "coordinates": [121.5061599, 25.0469621]}, "id": "58"}, {"type": "Feature", "properties": {"operator": "\u4e2d\u8208\u96fb\u5de5", "name": "\u5167\u6e56\u6c61\u6c34\u8655\u7406\u5ee0\u9644\u5c6c\u516c\u5712\u505c\u8eca\u5834", "address": "\u81fa\u5317\u5e02\u5167\u6e56\u5340\u820a\u5b97\u8def\u4e8c\u6bb52\u865f\u6c59\u6c34\u5ee0\u65c1\u505c\u8eca\u5834", "charging_stand_amount": 2, "battery_amount": 0, "vehicle_type": "汽車", "dist": "\u5167\u6e56\u5340"}, "geometry": {"type": "Point", "coordinates": [121.5748148, 25.06651363]}, "id": "59"}, {"type": "Feature", "properties": {"operator": "\u4e2d\u8208\u96fb\u5de5", "name": "\u65b0\u751f\u9ad8\u67b6(\u9326\u5dde\u8857-\u6c11\u6b0a\u6771\u8def)\u505c\u8eca\u5834", "address": "\u81fa\u5317\u5e02\u4e2d\u5c71\u5340\u65b0\u751f\u5317\u8def\u4e8c\u6bb5144\u865f\u5c0d\u9762\u505c\u8eca\u5834", "charging_stand_amount": 2, "battery_amount": 0, "vehicle_type": "汽車", "dist": "\u4e2d\u5c71\u5340"}, "geometry": {"type": "Point", "coordinates": [121.5273734, 25.06141615]}, "id": "60"}, {"type": "Feature", "properties": {"operator": "\u4e2d\u8208\u96fb\u5de5", "name": "\u65b0\u751f\u9ad8\u67b6(\u5357\u4eac\u6771\u8def-\u9577\u5b89\u6771\u8def)\u505c\u8eca\u5834", "address": "\u81fa\u5317\u5e02\u4e2d\u5c71\u5340\u65b0\u751f\u5317\u8def\u4e00\u6bb5122\u865f\u5c0d\u9762\u505c\u8eca\u5834", "charging_stand_amount": 2, "battery_amount": 0, "vehicle_type": "汽車", "dist": "\u4e2d\u5c71\u5340"}, "geometry": {"type": "Point", "coordinates": [121.5282995, 25.05118325]}, "id": "61"}, {"type": "Feature", "properties": {"operator": "\u4e2d\u8208\u96fb\u5de5", "name": "\u5bcc\u90a6\u4eba\u58fd\u4fdd\u96aa\u80a1\u4efd\u6709\u9650\u516c\u53f8", "address": "\u81fa\u5317\u5e02\u4e2d\u5c71\u5340\u907c\u5be7\u8857177\u865fB1\u53caB4\u81f3B6\u505c\u8eca\u5834", "charging_stand_amount": 2, "battery_amount": 0, "vehicle_type": "汽車", "dist": "\u4e2d\u5c71\u5340"}, "geometry": {"type": "Point", "coordinates": [121.5427388, 25.0534323]}, "id": "62"}, {"type": "Feature", "properties": {"operator": "\u4e2d\u8208\u96fb\u5de5", "name": "\u6c38\u56fa\u4fbf\u5229(\u6e2f\u5898\u7ad9)\u505c\u8eca\u5834", "address": "\u81fa\u5317\u5e02\u5167\u6e56\u5340\u5167\u6e56\u8def\u4e00\u6bb5596\u865f\u65c1\u505c\u8eca\u5834", "charging_stand_amount": 2, "battery_amount": 0, "vehicle_type": "汽車", "dist": "\u5167\u6e56\u5340"}, "geometry": {"type": "Point", "coordinates": [121.578104, 25.078765]}, "id": "63"}, {"type": "Feature", "properties": {"operator": "\u53f0\u6ce5\u5132\u80fd", "name": "\u53f0\u5317\u6a02\u7fa4\u7ad9", "address": "\u81fa\u5317\u5e02\u4e2d\u5c71\u5340\u656c\u696d\u56db\u8def\u548c\u6a02\u7fa4\u4e09\u8def\u4ea4\u53c9\u53e3(\u6a02\u7fa4\u81e8\u6642\u5e73\u9762\u505c\u8eca\u5834)", "charging_stand_amount": 2, "battery_amount": 0, "vehicle_type": "汽車", "dist": "\u4e2d\u5c71\u5340"}, "geometry": {"type": "Point", "coordinates": [121.5586699, 25.08277295]}, "id": "64"}, {"type": "Feature", "properties": {"operator": "\u53f0\u6ce5\u5132\u80fd", "name": "\u53f0\u5317\u81f3\u5584\u7ad9", "address": "\u81fa\u5317\u5e02\u58eb\u6797\u5340\u81f3\u5584\u8def1\u6bb5\u96d9\u6eaa\u516c\u5712\u659c\u5c0d\u9762", "charging_stand_amount": 2, "battery_amount": 0, "vehicle_type": "汽車", "dist": "\u58eb\u6797\u5340"}, "geometry": {"type": "Point", "coordinates": [121.538345, 25.09829883]}, "id": "65"}, {"type": "Feature", "properties": {"operator": "\u8d77\u800c\u884c", "name": "\u53f0\u5317\u5e02\u65b0\u5149\u6469\u5929\u5927\u6a13B3\u505c\u8eca\u5834", "address": "\u81fa\u5317\u5e02\u4e2d\u6b63\u5340\u5fe0\u5b5d\u897f\u8def\u4e00\u6bb566\u865f", "charging_stand_amount": 5, "battery_amount": 0, "vehicle_type": "汽車", "dist": "\u4e2d\u6b63\u5340"}, "geometry": {"type": "Point", "coordinates": [121.515912, 25.04612876]}, "id": "66"}, {"type": "Feature", "properties": {"operator": "\u4e2d\u83ef\u6c7d\u8eca", "name": "\u74b0\u5357\u5e02\u5834\u897f\u4e00\u9580\u8d85\u7d1a\u5145\u96fb\u7ad9", "address": "\u81fa\u5317\u5e02\u842c\u83ef\u5340\u74b0\u6cb3\u5357\u8def\u4e8c\u6bb5245\u865f", "charging_stand_amount": 2, "battery_amount": 0, "vehicle_type": "汽車", "dist": "\u842c\u83ef\u5340"}, "geometry": {"type": "Point", "coordinates": [121.4905841, 25.02949848]}, "id": "67"}, {"type": "Feature", "properties": {"operator": "\u4e2d\u83ef\u6c7d\u8eca", "name": "\u5bb6\u6a02\u798f\u4e09\u6c11\u5e97\u8d85\u7d1a\u5145\u96fb\u7ad9", "address": "\u81fa\u5317\u5e02\u677e\u5c71\u5340\u4e09\u6c11\u8def160\u865f", "charging_stand_amount": 1, "battery_amount": 0, "vehicle_type": "汽車", "dist": "\u677e\u5c71\u5340"}, "geometry": {"type": "Point", "coordinates": [121.5638533, 25.06193447]}, "id": "68"}, {"type": "Feature", "properties": {"operator": "\u4e2d\u83ef\u6c7d\u8eca", "name": "\u5bb6\u6a02\u798f\u5167\u6e56\u8d85\u7d1a\u5145\u96fb\u7ad9", "address": "\u81fa\u5317\u5e02\u5167\u6e56\u5340\u6c11\u5584\u885788\u865f", "charging_stand_amount": 1, "battery_amount": 0, "vehicle_type": "汽車", "dist": "\u5167\u6e56\u5340"}, "geometry": {"type": "Point", "coordinates": [121.5750008, 25.06037376]}, "id": "69"}, {"type": "Feature", "properties": {"operator": "\u4e2d\u83ef\u6c7d\u8eca", "name": "\u5bb6\u6a02\u798f\u91cd\u6176\u8d85\u7d1a\u5145\u96fb\u7ad9", "address": "\u81fa\u5317\u5e02\u5927\u540c\u5340\u91cd\u6176\u5317\u8def\u4e8c\u6bb5171\u865f", "charging_stand_amount": 1, "battery_amount": 0, "vehicle_type": "汽車", "dist": "\u5927\u540c\u5340"}, "geometry": {"type": "Point", "coordinates": [121.5138416, 25.05929757]}, "id": "70"}, {"type": "Feature", "properties": {"operator": "\u4e2d\u83ef\u6c7d\u8eca", "name": "\u9806\u76ca\u6c7d\u8eca\u5167\u6e56\u6240\u8d85\u7d1a\u5145\u96fb\u7ad9", "address": "\u81fa\u5317\u5e02\u5167\u6e56\u5340\u6c11\u6b0a\u6771\u8def\u516d\u6bb513\u4e4b15\u865f", "charging_stand_amount": 1, "battery_amount": 0, "vehicle_type": "汽車", "dist": "\u5167\u6e56\u5340"}, "geometry": {"type": "Point", "coordinates": [121.5788987, 25.06743765]}, "id": "71"}, {"type": "Feature", "properties": {"operator": "\u4e2d\u83ef\u6c7d\u8eca", "name": "\u4e2d\u83ef\u6c7d\u8eca\u6ff1\u6c5f\u5927\u6a13\u8d85\u7d1a\u5145\u96fb\u7ad9", "address": "\u81fa\u5317\u5e02\u4e2d\u5c71\u5340\u6ff1\u6c5f\u8857309\u865f", "charging_stand_amount": 1, "battery_amount": 0, "vehicle_type": "汽車", "dist": "\u4e2d\u5c71\u5340"}, "geometry": {"type": "Point", "coordinates": [121.5462843, 25.07274017]}, "id": "72"}, {"type": "Feature", "properties": {"operator": "\u4e2d\u83ef\u6c7d\u8eca", "name": "\u842c\u83ef\u548c\u5e73\u897f\u5c08\u8ce3\u5e97\u8d85\u7d1a\u5145\u96fb\u7ad9", "address": "\u81fa\u5317\u5e02\u842c\u83ef\u5340\u548c\u5e73\u897f\u8def\u4e8c\u6bb5149\u865f", "charging_stand_amount": 1, "battery_amount": 0, "vehicle_type": "汽車", "dist": "\u842c\u83ef\u5340"}, "geometry": {"type": "Point", "coordinates": [121.5051738, 25.03401765]}, "id": "73"}, {"type": "Feature", "properties": {"operator": "\u88d5\u96fb\u80fd\u6e90", "name": "YES\u53f0\u5927\u7acb\u9ad4\u6a5f\u8eca\u505c\u8eca\u5834\u5145\u96fb\u7ad9", "address": "\u81fa\u5317\u5e02\u5927\u5b89\u5340\u57fa\u9686\u8def\u4e09\u6bb5156\u5df7\u53e3", "charging_stand_amount": 5, "battery_amount": 0, "vehicle_type": "汽車", "dist": "\u5927\u5b89\u5340"}, "geometry": {"type": "Point", "coordinates": [121.542557, 25.016419]}, "id": "74"}, {"type": "Feature", "properties": {"operator": "", "name": "\u826f\u967d\u570b\u969b\u6709\u9650\u516c\u53f8", "address": "\u81fa\u5317\u5e02\u58eb\u6797\u5340\u58eb\u6771\u8def250\u865f", "charging_stand_amount": 0, "battery_amount": 0, "vehicle_type": "機車", "dist": "\u58eb\u6797\u5340"}, "geometry": {"type": "Point", "coordinates": [121.5356426, 25.1128919]}, "id": "0"}, {"type": "Feature", "properties": {"operator": "", "name": "\u99ff\u8f1d\u6a5f\u8eca\u884c", "address": "\u81fa\u5317\u5e02\u58eb\u6797\u5340\u5927\u5357\u8def295\u865f", "charging_stand_amount": 0, "battery_amount": 0, "vehicle_type": "機車", "dist": "\u58eb\u6797\u5340"}, "geometry": {"type": "Point", "coordinates": [121.518757, 25.0887668]}, "id": "1"}, {"type": "Feature", "properties": {"operator": "", "name": "\u6377\u904b\u6de1\u6c34\u7dda\u528d\u6f6d\u7ad9", "address": "\u81fa\u5317\u5e02\u58eb\u6797\u5340\u4e2d\u5c71\u5317\u8def5\u6bb565\u865f", "charging_stand_amount": 0, "battery_amount": 0, "vehicle_type": "機車", "dist": "\u58eb\u6797\u5340"}, "geometry": {"type": "Point", "coordinates": [121.5250016, 25.0842438]}, "id": "2"}, {"type": "Feature", "properties": {"operator": "", "name": "\u6c38\u666f\u6a5f\u8eca\u6750\u6599\u884c", "address": "\u81fa\u5317\u5e02\u58eb\u6797\u5340\u4e2d\u5c71\u5317\u8def6\u6bb5405\u5df779\u865f1\u6a13", "charging_stand_amount": 0, "battery_amount": 0, "vehicle_type": "機車", "dist": "\u58eb\u6797\u5340"}, "geometry": {"type": "Point", "coordinates": [121.5260607, 25.1170619]}, "id": "3"}, {"type": "Feature", "properties": {"operator": "", "name": "\u65b0\u5929\u6bcd\u6a5f\u8eca\u884c", "address": "\u81fa\u5317\u5e02\u58eb\u6797\u5340\u4e2d\u5c71\u5317\u8def6\u6bb5405\u5df783\u865f", "charging_stand_amount": 0, "battery_amount": 0, "vehicle_type": "機車", "dist": "\u58eb\u6797\u5340"}, "geometry": {"type": "Point", "coordinates": [121.5260073, 25.1171862]}, "id": "4"}, {"type": "Feature", "properties": {"operator": "", "name": "\u798f\u6797\u516c\u5712\u5730\u4e0b\u505c\u8eca\u5834", "address": "\u81fa\u5317\u5e02\u58eb\u6797\u5340\u4e2d\u6b63\u8def17\u865f", "charging_stand_amount": 0, "battery_amount": 0, "vehicle_type": "機車", "dist": "\u58eb\u6797\u5340"}, "geometry": {"type": "Point", "coordinates": [121.530776, 25.0959881]}, "id": "5"}, {"type": "Feature", "properties": {"operator": "", "name": "\u5317\u5927\u6a5f\u8eca\u6750\u6599\u884c", "address": "\u81fa\u5317\u5e02\u58eb\u6797\u5340\u4e2d\u6b63\u8def411\u3001413\u865f", "charging_stand_amount": 0, "battery_amount": 0, "vehicle_type": "機車", "dist": "\u58eb\u6797\u5340"}, "geometry": {"type": "Point", "coordinates": [121.5208035, 25.093658]}, "id": "6"}, {"type": "Feature", "properties": {"operator": "", "name": "\u5de8\u63da\u6a5f\u8eca\u884c", "address": "\u81fa\u5317\u5e02\u58eb\u6797\u5340\u4e2d\u6b63\u8def605\u865f", "charging_stand_amount": 0, "battery_amount": 0, "vehicle_type": "機車", "dist": "\u58eb\u6797\u5340"}, "geometry": {"type": "Point", "coordinates": [121.5097801, 25.0865496]}, "id": "7"}, {"type": "Feature", "properties": {"operator": "", "name": "\u793e\u5b50\u6e05\u6f54\u5206\u968a(\u846b\u8606)", "address": "\u81fa\u5317\u5e02\u58eb\u6797\u5340\u4e2d\u6b63\u8def\u81e8707-1\u865f(\u91cd\u967d\u6a4b\u4e0b)", "charging_stand_amount": 0, "battery_amount": 0, "vehicle_type": "機車", "dist": "\u58eb\u6797\u5340"}, "geometry": {"type": "Point", "coordinates": [121.5180051, 25.0919088]}, "id": "8"}, {"type": "Feature", "properties": {"operator": "", "name": "\u597d\u767c\u9054\u8eca\u696d", "address": "\u81fa\u5317\u5e02\u58eb\u6797\u5340\u5929\u6bcd\u6771\u8def8\u5df799\u865f", "charging_stand_amount": 0, "battery_amount": 0, "vehicle_type": "機車", "dist": "\u58eb\u6797\u5340"}, "geometry": {"type": "Point", "coordinates": [121.5303147, 25.1143251]}, "id": "9"}, {"type": "Feature", "properties": {"operator": "", "name": "\u9298\u8c50\u6a5f\u8eca\u884c", "address": "\u81fa\u5317\u5e02\u58eb\u6797\u5340\u6587\u6797\u8def314\u865f", "charging_stand_amount": 0, "battery_amount": 0, "vehicle_type": "機車", "dist": "\u58eb\u6797\u5340"}, "geometry": {"type": "Point", "coordinates": [121.5262043, 25.092191]}, "id": "10"}, {"type": "Feature", "properties": {"operator": "", "name": "\u6587\u660c\u570b\u5c0f\u5730\u4e0b\u505c\u8eca\u5834", "address": "\u81fa\u5317\u5e02\u58eb\u6797\u5340\u6587\u6797\u8def615\u5df720\u865f\u5730\u4e0b", "charging_stand_amount": 0, "battery_amount": 0, "vehicle_type": "機車", "dist": "\u58eb\u6797\u5340"}, "geometry": {"type": "Point", "coordinates": [121.5214658, 25.0992248]}, "id": "11"}, {"type": "Feature", "properties": {"operator": "", "name": "\u5bcc\u5049\u6a5f\u8eca\u884c", "address": "\u81fa\u5317\u5e02\u58eb\u6797\u5340\u6587\u6797\u8def663\u865f", "charging_stand_amount": 0, "battery_amount": 0, "vehicle_type": "機車", "dist": "\u58eb\u6797\u5340"}, "geometry": {"type": "Point", "coordinates": [121.5224075, 25.1007335]}, "id": "12"}, {"type": "Feature", "properties": {"operator": "", "name": "\u745e\u5c55\u6a5f\u8eca\u884c", "address": "\u81fa\u5317\u5e02\u58eb\u6797\u5340\u6587\u6797\u8def752\u865f", "charging_stand_amount": 0, "battery_amount": 0, "vehicle_type": "機車", "dist": "\u58eb\u6797\u5340"}, "geometry": {"type": "Point", "coordinates": [121.5200235, 25.1031923]}, "id": "13"}, {"type": "Feature", "properties": {"operator": "", "name": "\u5349\u8302\u5be6\u696d\u6709\u9650\u516c\u53f8", "address": "\u81fa\u5317\u5e02\u58eb\u6797\u5340\u6587\u6797\u8def764\u865f", "charging_stand_amount": 0, "battery_amount": 0, "vehicle_type": "機車", "dist": "\u58eb\u6797\u5340"}, "geometry": {"type": "Point", "coordinates": [121.51972, 25.103607]}, "id": "14"}, {"type": "Feature", "properties": {"operator": "", "name": "\u65b0\u93b0\u660c\u6a5f\u8eca\u884c", "address": "\u81fa\u5317\u5e02\u58eb\u6797\u5340\u81f3\u8aa0\u8def1\u6bb52-6\u865f", "charging_stand_amount": 0, "battery_amount": 0, "vehicle_type": "機車", "dist": "\u58eb\u6797\u5340"}, "geometry": {"type": "Point", "coordinates": [121.5306426, 25.1017473]}, "id": "15"}, {"type": "Feature", "properties": {"operator": "", "name": "\u91d1\u6649\u8eca\u696d\u884c", "address": "\u81fa\u5317\u5e02\u58eb\u6797\u5340\u5ef6\u5e73\u5317\u8def5\u6bb5111\u865f", "charging_stand_amount": 0, "battery_amount": 0, "vehicle_type": "機車", "dist": "\u58eb\u6797\u5340"}, "geometry": {"type": "Point", "coordinates": [121.5103362, 25.0814606]}, "id": "16"}, {"type": "Feature", "properties": {"operator": "", "name": "\u53f0\u76ca\u6a5f\u8eca\u6709\u9650\u516c\u53f8", "address": "\u81fa\u5317\u5e02\u58eb\u6797\u5340\u5ef6\u5e73\u5317\u8def5\u6bb5129\u865f", "charging_stand_amount": 0, "battery_amount": 0, "vehicle_type": "機車", "dist": "\u58eb\u6797\u5340"}, "geometry": {"type": "Point", "coordinates": [121.5102655, 25.0820185]}, "id": "17"}, {"type": "Feature", "properties": {"operator": "", "name": "\u539f\u76ca\u8eca\u696d\u884c", "address": "\u81fa\u5317\u5e02\u58eb\u6797\u5340\u5ef6\u5e73\u5317\u8def5\u6bb514\u865f", "charging_stand_amount": 0, "battery_amount": 0, "vehicle_type": "機車", "dist": "\u58eb\u6797\u5340"}, "geometry": {"type": "Point", "coordinates": [121.5113021, 25.0795003]}, "id": "18"}, {"type": "Feature", "properties": {"operator": "", "name": "\u529b\u6cf0\u8eca\u696d\u6709\u9650\u516c\u53f8", "address": "\u81fa\u5317\u5e02\u58eb\u6797\u5340\u5ef6\u5e73\u5317\u8def5\u6bb5220\u865f", "charging_stand_amount": 0, "battery_amount": 0, "vehicle_type": "機車", "dist": "\u58eb\u6797\u5340"}, "geometry": {"type": "Point", "coordinates": [121.5100855, 25.0840577]}, "id": "19"}, {"type": "Feature", "properties": {"operator": "", "name": "\u65e5\u8f1d\u8eca\u696d\u6709\u9650\u516c\u53f8", "address": "\u81fa\u5317\u5e02\u58eb\u6797\u5340\u5ef6\u5e73\u5317\u8def5\u6bb541\u865f1\u6a13", "charging_stand_amount": 0, "battery_amount": 0, "vehicle_type": "機車", "dist": "\u58eb\u6797\u5340"}, "geometry": {"type": "Point", "coordinates": [121.5108202, 25.0799134]}, "id": "20"}, {"type": "Feature", "properties": {"operator": "", "name": "\u5609\u76db\u8eca\u696d\u884c", "address": "\u81fa\u5317\u5e02\u58eb\u6797\u5340\u5ef6\u5e73\u5317\u8def6\u6bb5139\u865f", "charging_stand_amount": 0, "battery_amount": 0, "vehicle_type": "機車", "dist": "\u58eb\u6797\u5340"}, "geometry": {"type": "Point", "coordinates": [121.5077299, 25.0890642]}, "id": "21"}, {"type": "Feature", "properties": {"operator": "", "name": "\u8056\u5e73\u8eca\u696d\u884c", "address": "\u81fa\u5317\u5e02\u58eb\u6797\u5340\u5ef6\u5e73\u5317\u8def6\u6bb5149\u865f", "charging_stand_amount": 0, "battery_amount": 0, "vehicle_type": "機車", "dist": "\u58eb\u6797\u5340"}, "geometry": {"type": "Point", "coordinates": [121.5075453, 25.0892336]}, "id": "22"}, {"type": "Feature", "properties": {"operator": "", "name": "\u793e\u5b50\u570b\u5c0f\u5730\u4e0b\u505c\u8eca\u5834", "address": "\u81fa\u5317\u5e02\u58eb\u6797\u5340\u5ef6\u5e73\u5317\u8def6\u6bb5308\u865f\u5730\u4e0b", "charging_stand_amount": 0, "battery_amount": 0, "vehicle_type": "機車", "dist": "\u58eb\u6797\u5340"}, "geometry": {"type": "Point", "coordinates": [121.5020712, 25.0904715]}, "id": "23"}, {"type": "Feature", "properties": {"operator": "", "name": "\u798f\u5b89\u91cc\u8fa6\u516c\u5ba4", "address": "\u81fa\u5317\u5e02\u58eb\u6797\u5340\u5ef6\u5e73\u5317\u8def7\u6bb5107\u5df710\u865f", "charging_stand_amount": 0, "battery_amount": 0, "vehicle_type": "機車", "dist": "\u58eb\u6797\u5340"}, "geometry": {"type": "Point", "coordinates": [121.4944236, 25.0966491]}, "id": "24"}, {"type": "Feature", "properties": {"operator": "", "name": "\u5f97\u52dd\u6a5f\u8eca\u884c", "address": "\u81fa\u5317\u5e02\u58eb\u6797\u5340\u5ef6\u5e73\u5317\u8def8\u6bb5175\u865f", "charging_stand_amount": 0, "battery_amount": 0, "vehicle_type": "機車", "dist": "\u58eb\u6797\u5340"}, "geometry": {"type": "Point", "coordinates": [121.4815967, 25.1058434]}, "id": "25"}, {"type": "Feature", "properties": {"operator": "", "name": "\u4e2d\u83ef\u6c7d\u8eca\u793e\u5b50\u670d\u52d9\u5ee0", "address": "\u81fa\u5317\u5e02\u58eb\u6797\u5340\u5ef6\u5e73\u5317\u8def\u516d\u6bb5434\u865f", "charging_stand_amount": 0, "battery_amount": 0, "vehicle_type": "機車", "dist": "\u58eb\u6797\u5340"}, "geometry": {"type": "Point", "coordinates": [121.4997915, 25.0922801]}, "id": "26"}, {"type": "Feature", "properties": {"operator": "", "name": "\u6587\u767c\u6a5f\u8eca\u884c", "address": "\u81fa\u5317\u5e02\u58eb\u6797\u5340\u793e\u4e2d\u8857462\u865f", "charging_stand_amount": 0, "battery_amount": 0, "vehicle_type": "機車", "dist": "\u58eb\u6797\u5340"}, "geometry": {"type": "Point", "coordinates": [121.5016769, 25.0910935]}, "id": "27"}, {"type": "Feature", "properties": {"operator": "", "name": "\u540d\u5c71\u91cc\u8c93\u982d\u9df9\u4e4b\u5bb6", "address": "\u81fa\u5317\u5e02\u58eb\u6797\u5340\u96e8\u8072\u885768\u865f", "charging_stand_amount": 0, "battery_amount": 0, "vehicle_type": "機車", "dist": "\u58eb\u6797\u5340"}, "geometry": {"type": "Point", "coordinates": [121.5288601, 25.1036617]}, "id": "28"}, {"type": "Feature", "properties": {"operator": "", "name": "\u5fb7\u9f8d\u8eca\u696d\u884c", "address": "\u81fa\u5317\u5e02\u58eb\u6797\u5340\u6545\u5bae\u8def41\u5df71\u865f", "charging_stand_amount": 0, "battery_amount": 0, "vehicle_type": "機車", "dist": "\u58eb\u6797\u5340"}, "geometry": {"type": "Point", "coordinates": [121.547422, 25.096635]}, "id": "29"}, {"type": "Feature", "properties": {"operator": "", "name": "\u798f\u5143\u6a5f\u8eca\u6709\u9650\u516c\u53f8", "address": "\u81fa\u5317\u5e02\u58eb\u6797\u5340\u91cd\u6176\u5317\u8def4\u6bb5232\u865f", "charging_stand_amount": 0, "battery_amount": 0, "vehicle_type": "機車", "dist": "\u58eb\u6797\u5340"}, "geometry": {"type": "Point", "coordinates": [121.5113414, 25.0863432]}, "id": "30"}, {"type": "Feature", "properties": {"operator": "", "name": "\u76ca\u9686\u8eca\u696d\u6709\u9650\u516c\u53f8", "address": "\u81fa\u5317\u5e02\u58eb\u6797\u5340\u91cd\u6176\u5317\u8def4\u6bb5244\u865f", "charging_stand_amount": 0, "battery_amount": 0, "vehicle_type": "機車", "dist": "\u58eb\u6797\u5340"}, "geometry": {"type": "Point", "coordinates": [121.510921, 25.0858362]}, "id": "31"}, {"type": "Feature", "properties": {"operator": "", "name": "\u8349\u5c71\u6e05\u6f54\u5206\u968a", "address": "\u81fa\u5317\u5e02\u58eb\u6797\u5340\u683c\u81f4\u8def34\u865f", "charging_stand_amount": 0, "battery_amount": 0, "vehicle_type": "機車", "dist": "\u58eb\u6797\u5340"}, "geometry": {"type": "Point", "coordinates": [121.5465596, 25.1370671]}, "id": "32"}, {"type": "Feature", "properties": {"operator": "", "name": "\u627f\u5fb7\u516c\u5712\u5730\u4e0b\u505c\u8eca\u5834", "address": "\u81fa\u5317\u5e02\u58eb\u6797\u5340\u57fa\u6cb3\u8def150\u865f", "charging_stand_amount": 0, "battery_amount": 0, "vehicle_type": "機車", "dist": "\u58eb\u6797\u5340"}, "geometry": {"type": "Point", "coordinates": [121.6191733, 25.0726326]}, "id": "33"}, {"type": "Feature", "properties": {"operator": "", "name": "\u9032?\u8eca\u696d\u884c", "address": "\u81fa\u5317\u5e02\u58eb\u6797\u5340\u901a\u6cb3\u6771\u88571\u6bb5198\u865f1\u6a13", "charging_stand_amount": 0, "battery_amount": 0, "vehicle_type": "機車", "dist": "\u58eb\u6797\u5340"}, "geometry": {"type": "Point", "coordinates": [121.5160129, 25.0865885]}, "id": "34"}, {"type": "Feature", "properties": {"operator": "", "name": "\u76df\u696d\u8eca\u696d\u884c", "address": "\u81fa\u5317\u5e02\u58eb\u6797\u5340\u901a\u6cb3\u8857169\u865f", "charging_stand_amount": 0, "battery_amount": 0, "vehicle_type": "機車", "dist": "\u58eb\u6797\u5340"}, "geometry": {"type": "Point", "coordinates": [121.5198848, 25.0814403]}, "id": "35"}, {"type": "Feature", "properties": {"operator": "", "name": "\u5b78\u751f\u6a5f\u8eca\u884c\u6709\u9650\u516c\u53f8", "address": "\u81fa\u5317\u5e02\u58eb\u6797\u5340\u83ef\u5ca1\u8def31\u4e4b3\u865f1\u6a13", "charging_stand_amount": 0, "battery_amount": 0, "vehicle_type": "機車", "dist": "\u58eb\u6797\u5340"}, "geometry": {"type": "Point", "coordinates": [121.5427704, 25.1379829]}, "id": "36"}, {"type": "Feature", "properties": {"operator": "", "name": "\u6c38\u751f\u8eca\u696d\u6709\u9650\u516c\u53f8", "address": "\u81fa\u5317\u5e02\u58eb\u6797\u5340\u83ef\u9f61\u885771\u865f", "charging_stand_amount": 0, "battery_amount": 0, "vehicle_type": "機車", "dist": "\u58eb\u6797\u5340"}, "geometry": {"type": "Point", "coordinates": [121.5192849, 25.0847437]}, "id": "37"}, {"type": "Feature", "properties": {"operator": "", "name": "\u6377\u904b\u6de1\u6c34\u7dda\u829d\u5c71\u7ad9", "address": "\u81fa\u5317\u5e02\u58eb\u6797\u5340\u798f\u570b\u8def70\u865f", "charging_stand_amount": 0, "battery_amount": 0, "vehicle_type": "機車", "dist": "\u58eb\u6797\u5340"}, "geometry": {"type": "Point", "coordinates": [121.522514, 25.1030599]}, "id": "38"}, {"type": "Feature", "properties": {"operator": "", "name": "\u6b63\u5927\u6a5f\u8eca\u884c", "address": "\u81fa\u5317\u5e02\u58eb\u6797\u5340\u5fb7\u884c\u6771\u8def206\u865f", "charging_stand_amount": 0, "battery_amount": 0, "vehicle_type": "機車", "dist": "\u58eb\u6797\u5340"}, "geometry": {"type": "Point", "coordinates": [121.532029, 25.1088852]}, "id": "39"}, {"type": "Feature", "properties": {"operator": "", "name": "\u8aa0\u93b0\u8eca\u696d\u884c", "address": "\u81fa\u5317\u5e02\u58eb\u6797\u5340\u5fb7\u884c\u6771\u8def23\u865f", "charging_stand_amount": 0, "battery_amount": 0, "vehicle_type": "機車", "dist": "\u58eb\u6797\u5340"}, "geometry": {"type": "Point", "coordinates": [121.525865, 25.1069358]}, "id": "40"}, {"type": "Feature", "properties": {"operator": "", "name": "\u7532\u7fca\u6a5f\u8eca\u884c", "address": "\u81fa\u5317\u5e02\u5927\u540c\u5340\u5927\u9f8d\u8857230\u865f", "charging_stand_amount": 0, "battery_amount": 0, "vehicle_type": "機車", "dist": "\u5927\u540c\u5340"}, "geometry": {"type": "Point", "coordinates": [121.5613839, 25.0538489]}, "id": "41"}, {"type": "Feature", "properties": {"operator": "", "name": "\u5efa\u6210\u6e05\u6f54\u5206\u968a", "address": "\u81fa\u5317\u5e02\u5927\u540c\u5340\u6c11\u6b0a\u897f\u8def194\u4e4b1\u865f", "charging_stand_amount": 0, "battery_amount": 0, "vehicle_type": "機車", "dist": "\u5927\u540c\u5340"}, "geometry": {"type": "Point", "coordinates": [121.5141461, 25.0628026]}, "id": "42"}, {"type": "Feature", "properties": {"operator": "", "name": "\u5fe0\u5104\u8eca\u696d\u6709\u9650\u516c\u53f8", "address": "\u81fa\u5317\u5e02\u5927\u540c\u5340\u897f\u5be7\u5317\u8def17-4\u865f", "charging_stand_amount": 0, "battery_amount": 0, "vehicle_type": "機車", "dist": "\u5927\u540c\u5340"}, "geometry": {"type": "Point", "coordinates": [121.5086811, 25.0525532]}, "id": "43"}, {"type": "Feature", "properties": {"operator": "", "name": "\u5f18\u5c55\u6a5f\u8eca\u6709\u9650\u516c\u53f8", "address": "\u81fa\u5317\u5e02\u5927\u540c\u5340\u897f\u5be7\u5317\u8def93\u865f", "charging_stand_amount": 0, "battery_amount": 0, "vehicle_type": "機車", "dist": "\u5927\u540c\u5340"}, "geometry": {"type": "Point", "coordinates": [121.5091453, 25.0566321]}, "id": "44"}, {"type": "Feature", "properties": {"operator": "", "name": "\u9806\u65fa\u8eca\u696d\u6709\u9650\u516c\u53f8", "address": "\u81fa\u5317\u5e02\u5927\u540c\u5340\u5ef6\u5e73\u5317\u8def1\u6bb524\u865f", "charging_stand_amount": 0, "battery_amount": 0, "vehicle_type": "機車", "dist": "\u5927\u540c\u5340"}, "geometry": {"type": "Point", "coordinates": [121.5113064, 25.0627243]}, "id": "45"}, {"type": "Feature", "properties": {"operator": "", "name": "\u52a0\u7965\u8eca\u696d\u6709\u9650\u516c\u53f8", "address": "\u81fa\u5317\u5e02\u5927\u540c\u5340\u5ef6\u5e73\u5317\u8def2\u6bb5256\u865f", "charging_stand_amount": 0, "battery_amount": 0, "vehicle_type": "機車", "dist": "\u5927\u540c\u5340"}, "geometry": {"type": "Point", "coordinates": [121.51128, 25.060364]}, "id": "46"}, {"type": "Feature", "properties": {"operator": "", "name": "\u65b0\u5354\u5927\u8eca\u696d\u6709\u9650\u516c\u53f8", "address": "\u81fa\u5317\u5e02\u5927\u540c\u5340\u5ef6\u5e73\u5317\u8def3\u6bb567-1\u865f", "charging_stand_amount": 0, "battery_amount": 0, "vehicle_type": "機車", "dist": "\u5927\u540c\u5340"}, "geometry": {"type": "Point", "coordinates": [121.511122, 25.066278]}, "id": "47"}, {"type": "Feature", "properties": {"operator": "", "name": "\u555f\u8070\u5b78\u6821\u5730\u4e0b\u505c\u8eca\u5834", "address": "\u81fa\u5317\u5e02\u5927\u540c\u5340\u5ef6\u5e73\u5317\u8def4\u6bb5205\u865f", "charging_stand_amount": 0, "battery_amount": 0, "vehicle_type": "機車", "dist": "\u5927\u540c\u5340"}, "geometry": {"type": "Point", "coordinates": [121.5119309, 25.0744316]}, "id": "48"}, {"type": "Feature", "properties": {"operator": "", "name": "\u5927\u83ef\u8eca\u696d\u6709\u9650\u516c\u53f8", "address": "\u81fa\u5317\u5e02\u5927\u540c\u5340\u627f\u5fb7\u8def1\u6bb547\u865f", "charging_stand_amount": 0, "battery_amount": 0, "vehicle_type": "機車", "dist": "\u5927\u540c\u5340"}, "geometry": {"type": "Point", "coordinates": [121.518185, 25.06945]}, "id": "49"}, {"type": "Feature", "properties": {"operator": "", "name": "\u5c0f\u7def\u6a5f\u8eca\u884c", "address": "\u81fa\u5317\u5e02\u5927\u540c\u5340\u627f\u5fb7\u8def2\u6bb5149\u865f", "charging_stand_amount": 0, "battery_amount": 0, "vehicle_type": "機車", "dist": "\u5927\u540c\u5340"}, "geometry": {"type": "Point", "coordinates": [121.51838, 25.057998]}, "id": "50"}, {"type": "Feature", "properties": {"operator": "", "name": "\u5efa\u6210\u516c\u5712\u5730\u4e0b\u505c\u8eca\u5834", "address": "\u81fa\u5317\u5e02\u5927\u540c\u5340\u627f\u5fb7\u8def2\u6bb531\u865f", "charging_stand_amount": 0, "battery_amount": 0, "vehicle_type": "機車", "dist": "\u5927\u540c\u5340"}, "geometry": {"type": "Point", "coordinates": [121.5184286, 25.0540267]}, "id": "51"}, {"type": "Feature", "properties": {"operator": "", "name": "\u9577\u8c50\u8eca\u696d\u884c", "address": "\u81fa\u5317\u5e02\u5927\u540c\u5340\u627f\u5fb7\u8def3\u6bb5160\u865f", "charging_stand_amount": 0, "battery_amount": 0, "vehicle_type": "機車", "dist": "\u5927\u540c\u5340"}, "geometry": {"type": "Point", "coordinates": [121.5181778, 25.068759]}, "id": "52"}, {"type": "Feature", "properties": {"operator": "", "name": "\u5f18\u9054\u8eca\u696d\u6709\u9650\u516c\u53f8", "address": "\u81fa\u5317\u5e02\u5927\u540c\u5340\u627f\u5fb7\u8def3\u6bb5162\u865f", "charging_stand_amount": 0, "battery_amount": 0, "vehicle_type": "機車", "dist": "\u5927\u540c\u5340"}, "geometry": {"type": "Point", "coordinates": [121.5182034, 25.0687669]}, "id": "53"}, {"type": "Feature", "properties": {"operator": "", "name": "\u5927\u9f8d\u6e05\u6f54\u5206\u968a", "address": "\u81fa\u5317\u5e02\u5927\u540c\u5340\u627f\u5fb7\u8def3\u6bb5303\u4e4b1\u865f(\u627f\u5fb7\u6a4b\u4e0b)", "charging_stand_amount": 0, "battery_amount": 0, "vehicle_type": "機車", "dist": "\u5927\u540c\u5340"}, "geometry": {"type": "Point", "coordinates": [121.5188136, 25.0777125]}, "id": "54"}, {"type": "Feature", "properties": {"operator": "", "name": "\u570b\u771f\u8eca\u696d\u6709\u9650\u516c\u53f8", "address": "\u81fa\u5317\u5e02\u5927\u540c\u5340\u627f\u5fb7\u8def3\u6bb5312\u865f", "charging_stand_amount": 0, "battery_amount": 0, "vehicle_type": "機車", "dist": "\u5927\u540c\u5340"}, "geometry": {"type": "Point", "coordinates": [121.5197187, 25.0747215]}, "id": "55"}, {"type": "Feature", "properties": {"operator": "", "name": "\u745e\u660e\u6a5f\u8eca\u884c", "address": "\u81fa\u5317\u5e02\u5927\u540c\u5340\u9577\u5b89\u897f\u8def199\u865f", "charging_stand_amount": 0, "battery_amount": 0, "vehicle_type": "機車", "dist": "\u5927\u540c\u5340"}, "geometry": {"type": "Point", "coordinates": [121.51304, 25.051976]}, "id": "56"}, {"type": "Feature", "properties": {"operator": "", "name": "\u5efa\u6210\u570b\u4e2d\u5730\u4e0b\u505c\u8eca\u5834", "address": "\u81fa\u5317\u5e02\u5927\u540c\u5340\u9577\u5b89\u897f\u8def37\u865f\u4e4b\u4e00", "charging_stand_amount": 0, "battery_amount": 0, "vehicle_type": "機車", "dist": "\u5927\u540c\u5340"}, "geometry": {"type": "Point", "coordinates": [121.5196574, 25.0504086]}, "id": "57"}, {"type": "Feature", "properties": {"operator": "", "name": "\u5927\u9f8d\u570b\u5c0f\u5730\u4e0b\u505c\u8eca\u5834", "address": "\u81fa\u5317\u5e02\u5927\u540c\u5340\u54c8\u5bc6\u885747\u865f", "charging_stand_amount": 0, "battery_amount": 0, "vehicle_type": "機車", "dist": "\u5927\u540c\u5340"}, "geometry": {"type": "Point", "coordinates": [121.5166925, 25.073409]}, "id": "58"}, {"type": "Feature", "properties": {"operator": "", "name": "\u570b\u771f\u6a5f\u8eca\u6709\u9650\u516c\u53f8", "address": "\u81fa\u5317\u5e02\u5927\u540c\u5340\u54c8\u5bc6\u885763\u5df71\u865f", "charging_stand_amount": 0, "battery_amount": 0, "vehicle_type": "機車", "dist": "\u5927\u540c\u5340"}, "geometry": {"type": "Point", "coordinates": [121.5153033, 25.0741838]}, "id": "59"}, {"type": "Feature", "properties": {"operator": "", "name": "\u5409\u8ca1\u6a5f\u8eca\u884c", "address": "\u81fa\u5317\u5e02\u5927\u540c\u5340\u54c8\u5bc6\u885783\u865f", "charging_stand_amount": 0, "battery_amount": 0, "vehicle_type": "機車", "dist": "\u5927\u540c\u5340"}, "geometry": {"type": "Point", "coordinates": [121.5147933, 25.0730897]}, "id": "60"}, {"type": "Feature", "properties": {"operator": "", "name": "\u826f\u661f\u8eca\u696d\u6709\u9650\u516c\u53f8", "address": "\u81fa\u5317\u5e02\u5927\u540c\u5340\u91cd\u6176\u5317\u8def2\u6bb539\u865f", "charging_stand_amount": 0, "battery_amount": 0, "vehicle_type": "機車", "dist": "\u5927\u540c\u5340"}, "geometry": {"type": "Point", "coordinates": [121.5143858, 25.0550974]}, "id": "61"}, {"type": "Feature", "properties": {"operator": "", "name": "\u9032\u76ca\u6a5f\u8eca\u884c", "address": "\u81fa\u5317\u5e02\u5927\u540c\u5340\u5eab\u502b\u885731\u865f", "charging_stand_amount": 0, "battery_amount": 0, "vehicle_type": "機車", "dist": "\u5927\u540c\u5340"}, "geometry": {"type": "Point", "coordinates": [121.5178355, 25.072039]}, "id": "62"}, {"type": "Feature", "properties": {"operator": "", "name": "\u862d\u5dde\u6e05\u6f54\u5206\u968a", "address": "\u81fa\u5317\u5e02\u5927\u540c\u5340\u6566\u714c\u8def151\u4e4b1\u865f", "charging_stand_amount": 0, "battery_amount": 0, "vehicle_type": "機車", "dist": "\u5927\u540c\u5340"}, "geometry": {"type": "Point", "coordinates": [121.5116535, 25.0767375]}, "id": "63"}, {"type": "Feature", "properties": {"operator": "", "name": "\u7acb\u5049\u6210\u6709\u9650\u516c\u53f8", "address": "\u81fa\u5317\u5e02\u5927\u540c\u5340\u5be7\u590f\u8def127\u865f", "charging_stand_amount": 0, "battery_amount": 0, "vehicle_type": "機車", "dist": "\u5927\u540c\u5340"}, "geometry": {"type": "Point", "coordinates": [121.5145879, 25.0605169]}, "id": "64"}, {"type": "Feature", "properties": {"operator": "", "name": "\u84ec\u840a\u570b\u5c0f\u5730\u4e0b\u505c\u8eca\u5834", "address": "\u81fa\u5317\u5e02\u5927\u540c\u5340\u5be7\u590f\u8def35\u865f", "charging_stand_amount": 0, "battery_amount": 0, "vehicle_type": "機車", "dist": "\u5927\u540c\u5340"}, "geometry": {"type": "Point", "coordinates": [121.5157097, 25.0563873]}, "id": "65"}, {"type": "Feature", "properties": {"operator": "", "name": "\u76f4\u5c6c\u591c\u52e4\u6e05\u6f54\u5206\u968a", "address": "\u81fa\u5317\u5e02\u5927\u540c\u5340\u912d\u5dde\u8def\u81e850\u865f", "charging_stand_amount": 0, "battery_amount": 0, "vehicle_type": "機車", "dist": "\u5927\u540c\u5340"}, "geometry": {"type": "Point", "coordinates": [121.5115991, 25.0498653]}, "id": "66"}, {"type": "Feature", "properties": {"operator": "", "name": "\u7fca\u7fd4\u6a5f\u8eca\u884c", "address": "\u81fa\u5317\u5e02\u5927\u540c\u5340\u9326\u897f\u885753\u5df72\u865f", "charging_stand_amount": 0, "battery_amount": 0, "vehicle_type": "機車", "dist": "\u5927\u540c\u5340"}, "geometry": {"type": "Point", "coordinates": [121.5158402, 25.0600583]}, "id": "67"}, {"type": "Feature", "properties": {"operator": "", "name": "\u78ec\u8449\u4f01\u696d\u6709\u9650\u516c\u53f8", "address": "\u81fa\u5317\u5e02\u5927\u540c\u5340\u9326\u897f\u885756\u865f", "charging_stand_amount": 0, "battery_amount": 0, "vehicle_type": "機車", "dist": "\u5927\u540c\u5340"}, "geometry": {"type": "Point", "coordinates": [121.5196988, 25.0601986]}, "id": "68"}, {"type": "Feature", "properties": {"operator": "", "name": "\u96c4\u5049\u6a5f\u8eca\u884c", "address": "\u81fa\u5317\u5e02\u5927\u540c\u5340\u74b0\u6cb3\u5317\u8def1\u6bb5335\u865f", "charging_stand_amount": 0, "battery_amount": 0, "vehicle_type": "機車", "dist": "\u5927\u540c\u5340"}, "geometry": {"type": "Point", "coordinates": [121.5086512, 25.0779224]}, "id": "69"}, {"type": "Feature", "properties": {"operator": "", "name": "\u5ef6\u5e73\u6e05\u6f54\u5206\u968a", "address": "\u81fa\u5317\u5e02\u5927\u540c\u5340\u74b0\u6cb3\u5317\u8def1\u6bb5\u81e863-1\u865f", "charging_stand_amount": 0, "battery_amount": 0, "vehicle_type": "機車", "dist": "\u5927\u540c\u5340"}, "geometry": {"type": "Point", "coordinates": [121.5086512, 25.0779224]}, "id": "70"}, {"type": "Feature", "properties": {"operator": "", "name": "\u91d1\u7406\u8eca\u696d\u6709\u9650\u516c\u53f8", "address": "\u81fa\u5317\u5e02\u5927\u5b89\u5340\u516b\u5fb7\u8def2\u6bb535\u865f", "charging_stand_amount": 0, "battery_amount": 0, "vehicle_type": "機車", "dist": "\u5927\u5b89\u5340"}, "geometry": {"type": "Point", "coordinates": [121.534073, 25.0448781]}, "id": "71"}, {"type": "Feature", "properties": {"operator": "", "name": "\u842c\u806f\u8eca\u696d\u884c", "address": "\u81fa\u5317\u5e02\u5927\u5b89\u5340\u5e02\u6c11\u5927\u90534\u6bb522\u865f", "charging_stand_amount": 0, "battery_amount": 0, "vehicle_type": "機車", "dist": "\u5927\u5b89\u5340"}, "geometry": {"type": "Point", "coordinates": [121.5448174, 25.0447032]}, "id": "72"}, {"type": "Feature", "properties": {"operator": "", "name": "\u6a3a\u65b0\u8eca\u696d\u884c", "address": "\u81fa\u5317\u5e02\u5927\u5b89\u5340\u5e02\u6c11\u5927\u90534\u6bb564\u865f", "charging_stand_amount": 0, "battery_amount": 0, "vehicle_type": "機車", "dist": "\u5927\u5b89\u5340"}, "geometry": {"type": "Point", "coordinates": [121.5468387, 25.0448202]}, "id": "73"}, {"type": "Feature", "properties": {"operator": "", "name": "\u76db\u660c\u6a5f\u8eca\u884c", "address": "\u81fa\u5317\u5e02\u5927\u5b89\u5340\u8f9b\u4ea5\u8def1\u6bb558\u865f", "charging_stand_amount": 0, "battery_amount": 0, "vehicle_type": "機車", "dist": "\u5927\u5b89\u5340"}, "geometry": {"type": "Point", "coordinates": [121.5433783, 25.0249441]}, "id": "74"}, {"type": "Feature", "properties": {"operator": "", "name": "\u53f0\u5927\u6e05\u6f54\u5206\u968a", "address": "\u81fa\u5317\u5e02\u5927\u5b89\u5340\u8f9b\u4ea5\u8def1\u6bb5\u81e8138\u865f", "charging_stand_amount": 0, "battery_amount": 0, "vehicle_type": "機車", "dist": "\u5927\u5b89\u5340"}, "geometry": {"type": "Point", "coordinates": [121.5546312, 25.0005937]}, "id": "75"}, {"type": "Feature", "properties": {"operator": "", "name": "\u548c\u5e73\u6e05\u6f54\u5206\u968a", "address": "\u81fa\u5317\u5e02\u5927\u5b89\u5340\u8f9b\u4ea5\u8def1\u6bb5\u81e8143\u865f", "charging_stand_amount": 0, "battery_amount": 0, "vehicle_type": "機車", "dist": "\u5927\u5b89\u5340"}, "geometry": {"type": "Point", "coordinates": [121.5546312, 25.0005937]}, "id": "76"}, {"type": "Feature", "properties": {"operator": "", "name": "\u5b8f\u7acb\u6a5f\u8eca\u4e8b\u696d\u6709\u9650\u516c\u53f8", "address": "\u81fa\u5317\u5e02\u5927\u5b89\u5340\u548c\u5e73\u6771\u8def2\u6bb5141\u865f", "charging_stand_amount": 0, "battery_amount": 0, "vehicle_type": "機車", "dist": "\u5927\u5b89\u5340"}, "geometry": {"type": "Point", "coordinates": [121.5433783, 25.0249441]}, "id": "77"}, {"type": "Feature", "properties": {"operator": "", "name": "\u5b8f\u8208\u8eca\u696d\u6709\u9650\u516c\u53f8", "address": "\u81fa\u5317\u5e02\u5927\u5b89\u5340\u548c\u5e73\u6771\u8def3\u6bb5127\u865f", "charging_stand_amount": 0, "battery_amount": 0, "vehicle_type": "機車", "dist": "\u5927\u5b89\u5340"}, "geometry": {"type": "Point", "coordinates": [121.5433783, 25.0249441]}, "id": "78"}, {"type": "Feature", "properties": {"operator": "", "name": "\u798f\u5168\u8eca\u696d", "address": "\u81fa\u5317\u5e02\u5927\u5b89\u5340\u548c\u5e73\u6771\u8def3\u6bb5228\u5df788\u865f", "charging_stand_amount": 0, "battery_amount": 0, "vehicle_type": "機車", "dist": "\u5927\u5b89\u5340"}, "geometry": {"type": "Point", "coordinates": [121.5344209, 25.0341151]}, "id": "79"}, {"type": "Feature", "properties": {"operator": "", "name": "\u6377\u904b\u6728\u67f5\u7dda\u9e9f\u5149\u7ad9", "address": "\u81fa\u5317\u5e02\u5927\u5b89\u5340\u548c\u5e73\u6771\u8def3\u6bb5410\u865f", "charging_stand_amount": 0, "battery_amount": 0, "vehicle_type": "機車", "dist": "\u5927\u5b89\u5340"}, "geometry": {"type": "Point", "coordinates": [121.5433783, 25.0249441]}, "id": "80"}, {"type": "Feature", "properties": {"operator": "", "name": "\u8eca\u738b\u4e8c\u8f2a\u793e", "address": "\u81fa\u5317\u5e02\u5927\u5b89\u5340\u5ef6\u5409\u885764-1\u865f", "charging_stand_amount": 0, "battery_amount": 0, "vehicle_type": "機車", "dist": "\u5927\u5b89\u5340"}, "geometry": {"type": "Point", "coordinates": [121.5538743, 25.043398]}, "id": "81"}, {"type": "Feature", "properties": {"operator": "", "name": "\u6566\u5316\u6e05\u6f54\u5206\u968a", "address": "\u81fa\u5317\u5e02\u5927\u5b89\u5340\u5fe0\u5b5d\u6771\u8def3\u6bb531\u865f(\u5efa\u570b\u5317\u8def\u6a4b\u5b54\u4e0b)", "charging_stand_amount": 0, "battery_amount": 0, "vehicle_type": "機車", "dist": "\u5927\u5b89\u5340"}, "geometry": {"type": "Point", "coordinates": [121.544007, 25.0418168]}, "id": "82"}, {"type": "Feature", "properties": {"operator": "", "name": "\u81f4\u76db\u6a5f\u8eca\u884c", "address": "\u81fa\u5317\u5e02\u5927\u5b89\u5340\u91d1\u83ef\u8857118-4\u865f", "charging_stand_amount": 0, "battery_amount": 0, "vehicle_type": "機車", "dist": "\u5927\u5b89\u5340"}, "geometry": {"type": "Point", "coordinates": [121.526893, 25.0300747]}, "id": "83"}, {"type": "Feature", "properties": {"operator": "", "name": "\u65b0\u751f\u6e05\u6f54\u5206\u968a", "address": "\u81fa\u5317\u5e02\u5927\u5b89\u5340\u5efa\u570b\u5357\u8def1\u6bb5\u81e8173\u865f(\u8fd1\u6fdf\u5357\u8def3\u6bb5)", "charging_stand_amount": 0, "battery_amount": 0, "vehicle_type": "機車", "dist": "\u5927\u5b89\u5340"}, "geometry": {"type": "Point", "coordinates": [121.5372832, 25.0228567]}, "id": "84"}, {"type": "Feature", "properties": {"operator": "", "name": "\u5178\u8f2a\u6a5f\u8eca\u884c", "address": "\u81fa\u5317\u5e02\u5927\u5b89\u5340\u5efa\u570b\u5357\u8def2\u6bb5161\u865f", "charging_stand_amount": 0, "battery_amount": 0, "vehicle_type": "機車", "dist": "\u5927\u5b89\u5340"}, "geometry": {"type": "Point", "coordinates": [121.5381508, 25.0284558]}, "id": "85"}, {"type": "Feature", "properties": {"operator": "", "name": "\u9f8d\u9580\u570b\u4e2d\u5730\u4e0b\u505c\u8eca\u5834", "address": "\u81fa\u5317\u5e02\u5927\u5b89\u5340\u5efa\u570b\u5357\u8def2\u6bb5269\u865f\u5730\u4e0b\u505c\u8eca\u5834", "charging_stand_amount": 0, "battery_amount": 0, "vehicle_type": "機車", "dist": "\u5927\u5b89\u5340"}, "geometry": {"type": "Point", "coordinates": [121.5382271, 25.0237532]}, "id": "86"}, {"type": "Feature", "properties": {"operator": "", "name": "\u5927\u5b89\u68ee\u6797\u516c\u5712\u5730\u4e0b\u505c\u8eca\u5834", "address": "\u81fa\u5317\u5e02\u5927\u5b89\u5340\u5efa\u570b\u5357\u8def2\u6bb52\u865f", "charging_stand_amount": 0, "battery_amount": 0, "vehicle_type": "機車", "dist": "\u5927\u5b89\u5340"}, "geometry": {"type": "Point", "coordinates": [121.5362253, 25.0326001]}, "id": "87"}, {"type": "Feature", "properties": {"operator": "", "name": "\u5c0f\u6797\u6a5f\u8eca\u884c", "address": "\u81fa\u5317\u5e02\u5927\u5b89\u5340\u5efa\u570b\u5357\u8def2\u6bb579\u5df73\u865f", "charging_stand_amount": 0, "battery_amount": 0, "vehicle_type": "機車", "dist": "\u5927\u5b89\u5340"}, "geometry": {"type": "Point", "coordinates": [121.538314, 25.0309681]}, "id": "88"}, {"type": "Feature", "properties": {"operator": "", "name": "\u745e\u5b89\u6e05\u6f54\u5206\u968a", "address": "\u81fa\u5317\u5e02\u5927\u5b89\u5340\u5efa\u570b\u5357\u8def2\u6bb5\u81e8263\u865f", "charging_stand_amount": 0, "battery_amount": 0, "vehicle_type": "機車", "dist": "\u5927\u5b89\u5340"}, "geometry": {"type": "Point", "coordinates": [121.5372832, 25.0228567]}, "id": "89"}, {"type": "Feature", "properties": {"operator": "", "name": "\u6771\u8cbf\u6a5f\u8eca\u6709\u9650\u516c\u53f8", "address": "\u81fa\u5317\u5e02\u5927\u5b89\u5340\u57fa\u9686\u8def2\u6bb5233\u865f", "charging_stand_amount": 0, "battery_amount": 0, "vehicle_type": "機車", "dist": "\u5927\u5b89\u5340"}, "geometry": {"type": "Point", "coordinates": [121.5508324, 25.0225508]}, "id": "90"}, {"type": "Feature", "properties": {"operator": "", "name": "\u81e5\u9f8d\u6e05\u6f54\u5206\u968a", "address": "\u81fa\u5317\u5e02\u5927\u5b89\u5340\u57fa\u9686\u8def3\u6bb5\u81e824\u865f", "charging_stand_amount": 0, "battery_amount": 0, "vehicle_type": "機車", "dist": "\u5927\u5b89\u5340"}, "geometry": {"type": "Point", "coordinates": [121.5456535, 25.018168]}, "id": "91"}, {"type": "Feature", "properties": {"operator": "", "name": "\u4fe1\u5168\u8eca\u696d\u6709\u9650\u516c\u53f8", "address": "\u81fa\u5317\u5e02\u5927\u5b89\u5340\u901a\u5316\u8857168\u865f", "charging_stand_amount": 0, "battery_amount": 0, "vehicle_type": "機車", "dist": "\u5927\u5b89\u5340"}, "geometry": {"type": "Point", "coordinates": [121.5535997, 25.0283178]}, "id": "92"}, {"type": "Feature", "properties": {"operator": "", "name": "\u8fc5\u8aa0\u6a5f\u8eca\u884c", "address": "\u81fa\u5317\u5e02\u5927\u5b89\u5340\u901a\u5316\u8857171\u5df711\u865f", "charging_stand_amount": 0, "battery_amount": 0, "vehicle_type": "機車", "dist": "\u5927\u5b89\u5340"}, "geometry": {"type": "Point", "coordinates": [121.5544389, 25.02803]}, "id": "93"}, {"type": "Feature", "properties": {"operator": "", "name": "\u798f\u5143\u8eca\u696d\u884c", "address": "\u81fa\u5317\u5e02\u5927\u5b89\u5340\u5bcc\u967d\u88572\u865f", "charging_stand_amount": 0, "battery_amount": 0, "vehicle_type": "機車", "dist": "\u5927\u5b89\u5340"}, "geometry": {"type": "Point", "coordinates": [121.5681064, 25.0402552]}, "id": "94"}, {"type": "Feature", "properties": {"operator": "", "name": "\u7acb\u6689\u6a5f\u8eca\u884c", "address": "\u81fa\u5317\u5e02\u5927\u5b89\u5340\u65b0\u751f\u5357\u8def2\u6bb582-1\u865f1\u6a13", "charging_stand_amount": 0, "battery_amount": 0, "vehicle_type": "機車", "dist": "\u5927\u5b89\u5340"}, "geometry": {"type": "Point", "coordinates": [121.534563, 25.027169]}, "id": "95"}, {"type": "Feature", "properties": {"operator": "", "name": "\u5d07\u76db\u6a5f\u8eca\u884c", "address": "\u81fa\u5317\u5e02\u5927\u5b89\u5340\u745e\u5b89\u8857152\u865f", "charging_stand_amount": 0, "battery_amount": 0, "vehicle_type": "機車", "dist": "\u5927\u5b89\u5340"}, "geometry": {"type": "Point", "coordinates": [121.5418954, 25.029229]}, "id": "96"}, {"type": "Feature", "properties": {"operator": "", "name": "\u5609\u8208\u516c\u5712\u5730\u4e0b\u505c\u8eca\u5834", "address": "\u81fa\u5317\u5e02\u5927\u5b89\u5340\u5609\u8208\u8857373\u865f", "charging_stand_amount": 0, "battery_amount": 0, "vehicle_type": "機車", "dist": "\u5927\u5b89\u5340"}, "geometry": {"type": "Point", "coordinates": [121.55835, 25.0318217]}, "id": "97"}, {"type": "Feature", "properties": {"operator": "", "name": "\u5efa\u7dad\u6a5f\u8eca\u884c", "address": "\u81fa\u5317\u5e02\u5927\u5b89\u5340\u6f6e\u5dde\u885786\u865f", "charging_stand_amount": 0, "battery_amount": 0, "vehicle_type": "機車", "dist": "\u5927\u5b89\u5340"}, "geometry": {"type": "Point", "coordinates": [121.5246447, 25.0290397]}, "id": "98"}, {"type": "Feature", "properties": {"operator": "", "name": "\u7687\u4fe1\u6a5f\u8eca\u884c", "address": "\u81fa\u5317\u5e02\u5927\u5b89\u5340\u6fdf\u5357\u8def\u4e09\u6bb568\u865f", "charging_stand_amount": 0, "battery_amount": 0, "vehicle_type": "機車", "dist": "\u5927\u5b89\u5340"}, "geometry": {"type": "Point", "coordinates": [121.537237, 25.040038]}, "id": "99"}, {"type": "Feature", "properties": {"operator": "", "name": "\u76ca\u63da\u8eca\u696d\u6709\u9650\u516c\u53f8", "address": "\u81fa\u5317\u5e02\u5927\u5b89\u5340\u7f85\u65af\u798f\u8def3\u6bb593\u865f", "charging_stand_amount": 0, "battery_amount": 0, "vehicle_type": "機車", "dist": "\u5927\u5b89\u5340"}, "geometry": {"type": "Point", "coordinates": [121.5263455, 25.0226062]}, "id": "100"}, {"type": "Feature", "properties": {"operator": "", "name": "\u5f02\u57ce\u8eca\u696d\u6709\u9650\u516c\u53f8", "address": "\u81fa\u5317\u5e02\u4e2d\u5c71\u5340\u516b\u5fb7\u8def2\u6bb5329\u865f", "charging_stand_amount": 0, "battery_amount": 0, "vehicle_type": "機車", "dist": "\u4e2d\u5c71\u5340"}, "geometry": {"type": "Point", "coordinates": [121.543199, 25.047509]}, "id": "101"}, {"type": "Feature", "properties": {"operator": "", "name": "\u6750\u6d0b\u8eca\u696d", "address": "\u81fa\u5317\u5e02\u4e2d\u5c71\u5340\u516b\u5fb7\u8def2\u6bb561\u865f", "charging_stand_amount": 0, "battery_amount": 0, "vehicle_type": "機車", "dist": "\u4e2d\u5c71\u5340"}, "geometry": {"type": "Point", "coordinates": [121.5348345, 25.0452175]}, "id": "102"}, {"type": "Feature", "properties": {"operator": "", "name": "\u904b\u8f2a\u6a5f\u8eca\u884c", "address": "\u81fa\u5317\u5e02\u4e2d\u5c71\u5340\u516b\u5fb7\u8def2\u6bb588\u5df720\u865f", "charging_stand_amount": 0, "battery_amount": 0, "vehicle_type": "機車", "dist": "\u4e2d\u5c71\u5340"}, "geometry": {"type": "Point", "coordinates": [121.5359477, 25.0449334]}, "id": "103"}, {"type": "Feature", "properties": {"operator": "", "name": "\u6b63\u826f\u6a5f\u8eca\u6709\u9650\u516c\u53f8", "address": "\u81fa\u5317\u5e02\u4e2d\u5c71\u5340\u516b\u5fb7\u8def\u4e8c\u6bb570\u865f", "charging_stand_amount": 0, "battery_amount": 0, "vehicle_type": "機車", "dist": "\u4e2d\u5c71\u5340"}, "geometry": {"type": "Point", "coordinates": [121.5355234, 25.0453429]}, "id": "104"}, {"type": "Feature", "properties": {"operator": "", "name": "\u4e2d\u5c71\u5340\u6e05\u6f54\u968a\u5927\u76f4\u5206\u968a", "address": "\u81fa\u5317\u5e02\u4e2d\u5c71\u5340\u5927\u76f4\u885721\u5df72\u865f", "charging_stand_amount": 0, "battery_amount": 0, "vehicle_type": "機車", "dist": "\u4e2d\u5c71\u5340"}, "geometry": {"type": "Point", "coordinates": [121.5468812, 25.0816455]}, "id": "105"}, {"type": "Feature", "properties": {"operator": "", "name": "\u6c38\u5168\u6a5f\u8eca\u884c", "address": "\u81fa\u5317\u5e02\u4e2d\u5c71\u5340\u4e2d\u5c71\u5317\u8def2\u6bb5137\u5df736-2\u865f", "charging_stand_amount": 0, "battery_amount": 0, "vehicle_type": "機車", "dist": "\u4e2d\u5c71\u5340"}, "geometry": {"type": "Point", "coordinates": [121.5253198, 25.0616082]}, "id": "106"}, {"type": "Feature", "properties": {"operator": "", "name": "\u6c38\u76db\u516c\u5712\u5730\u4e0b\u505c\u8eca\u5834", "address": "\u81fa\u5317\u5e02\u4e2d\u5c71\u5340\u4e2d\u5c71\u5317\u8def2\u6bb593\u5df730\u865f", "charging_stand_amount": 0, "battery_amount": 0, "vehicle_type": "機車", "dist": "\u4e2d\u5c71\u5340"}, "geometry": {"type": "Point", "coordinates": [121.5247468, 25.0592421]}, "id": "107"}, {"type": "Feature", "properties": {"operator": "", "name": "\u81fa\u5317\u5e02\u4e2d\u5c71\u904b\u52d5\u4e2d\u5fc3", "address": "\u81fa\u5317\u5e02\u4e2d\u5c71\u5340\u4e2d\u5c71\u5317\u8def\u4e8c\u6bb544\u5df72\u865fB1", "charging_stand_amount": 0, "battery_amount": 0, "vehicle_type": "機車", "dist": "\u4e2d\u5c71\u5340"}, "geometry": {"type": "Point", "coordinates": [121.5214518, 25.0549545]}, "id": "108"}, {"type": "Feature", "properties": {"operator": "", "name": "\u6cd3\u539f\u5f70\u8eca\u696d\u884c", "address": "\u81fa\u5317\u5e02\u4e2d\u5c71\u5340\u4e2d\u539f\u885723\u865f", "charging_stand_amount": 0, "battery_amount": 0, "vehicle_type": "機車", "dist": "\u4e2d\u5c71\u5340"}, "geometry": {"type": "Point", "coordinates": [121.5926842, 25.0532174]}, "id": "109"}, {"type": "Feature", "properties": {"operator": "", "name": "\u65ed\u9806\u8eca\u696d\u884c", "address": "\u81fa\u5317\u5e02\u4e2d\u5c71\u5340\u4e2d\u539f\u885755\u865f", "charging_stand_amount": 0, "battery_amount": 0, "vehicle_type": "機車", "dist": "\u4e2d\u5c71\u5340"}, "geometry": {"type": "Point", "coordinates": [121.5289683, 25.058406]}, "id": "110"}, {"type": "Feature", "properties": {"operator": "", "name": "\u5fb7\u525b\u8eca\u884c\u6709\u9650\u516c\u53f8", "address": "\u81fa\u5317\u5e02\u4e2d\u5c71\u5340\u5929\u6d25\u885727\u865f", "charging_stand_amount": 0, "battery_amount": 0, "vehicle_type": "機車", "dist": "\u4e2d\u5c71\u5340"}, "geometry": {"type": "Point", "coordinates": [121.5226912, 25.0486506]}, "id": "111"}, {"type": "Feature", "properties": {"operator": "", "name": "\u5927\u660c\u6a5f\u8eca\u6709\u9650\u516c\u53f8", "address": "\u81fa\u5317\u5e02\u4e2d\u5c71\u5340\u5317\u5b89\u8def458\u5df73\u865f", "charging_stand_amount": 0, "battery_amount": 0, "vehicle_type": "機車", "dist": "\u4e2d\u5c71\u5340"}, "geometry": {"type": "Point", "coordinates": [121.5446486, 25.0793452]}, "id": "112"}, {"type": "Feature", "properties": {"operator": "", "name": "\u82f1\u8a6e\u6a5f\u8eca\u884c", "address": "\u81fa\u5317\u5e02\u4e2d\u5c71\u5340\u5317\u5b89\u8def656\u865f1\u6a13", "charging_stand_amount": 0, "battery_amount": 0, "vehicle_type": "機車", "dist": "\u4e2d\u5c71\u5340"}, "geometry": {"type": "Point", "coordinates": [121.5493443, 25.0835919]}, "id": "113"}, {"type": "Feature", "properties": {"operator": "", "name": "\u65ed\u5cf0\u6a5f\u8eca\u884c", "address": "\u81fa\u5317\u5e02\u4e2d\u5c71\u5340\u5317\u5b89\u8def670\u5df79\u865f", "charging_stand_amount": 0, "battery_amount": 0, "vehicle_type": "機車", "dist": "\u4e2d\u5c71\u5340"}, "geometry": {"type": "Point", "coordinates": [121.5497822, 25.084091]}, "id": "114"}, {"type": "Feature", "properties": {"operator": "", "name": "\u6771\u548c\u85dd\u54c1\u6709\u9650\u516c\u53f8(77\u865f\u55ae\u8eca\u5e97)", "address": "\u81fa\u5317\u5e02\u4e2d\u5c71\u5340\u6c11\u751f\u6771\u8def2\u6bb577\u865f", "charging_stand_amount": 0, "battery_amount": 0, "vehicle_type": "機車", "dist": "\u4e2d\u5c71\u5340"}, "geometry": {"type": "Point", "coordinates": [121.5427093, 25.0792018]}, "id": "115"}, {"type": "Feature", "properties": {"operator": "", "name": "\u5c55\u6b23\u8c6a\u8eca\u696d\u6709\u9650\u516c\u53f8", "address": "\u81fa\u5317\u5e02\u4e2d\u5c71\u5340\u6c11\u6b0a\u6771\u8def2\u6bb5126\u865f", "charging_stand_amount": 0, "battery_amount": 0, "vehicle_type": "機車", "dist": "\u4e2d\u5c71\u5340"}, "geometry": {"type": "Point", "coordinates": [121.5279788, 25.0623924]}, "id": "116"}, {"type": "Feature", "properties": {"operator": "", "name": "\u671d\u65e5\u8eca\u696d\u884c", "address": "\u81fa\u5317\u5e02\u4e2d\u5c71\u5340\u6c11\u6b0a\u6771\u8def2\u6bb5133\u865f", "charging_stand_amount": 0, "battery_amount": 0, "vehicle_type": "機車", "dist": "\u4e2d\u5c71\u5340"}, "geometry": {"type": "Point", "coordinates": [121.5279788, 25.0623924]}, "id": "117"}, {"type": "Feature", "properties": {"operator": "", "name": "\u9054\u8aa0\u8eca\u696d\u6709\u9650\u516c\u53f8", "address": "\u81fa\u5317\u5e02\u4e2d\u5c71\u5340\u5409\u6797\u8def12-3\u865f", "charging_stand_amount": 0, "battery_amount": 0, "vehicle_type": "機車", "dist": "\u4e2d\u5c71\u5340"}, "geometry": {"type": "Point", "coordinates": [121.5299237, 25.0502952]}, "id": "118"}, {"type": "Feature", "properties": {"operator": "", "name": "\u9577\u5b89\u570b\u5c0f\u5730\u4e0b\u505c\u8eca\u5834", "address": "\u81fa\u5317\u5e02\u4e2d\u5c71\u5340\u5409\u6797\u8def15\u865f\u5730\u4e0b\u505c\u8eca\u5834", "charging_stand_amount": 0, "battery_amount": 0, "vehicle_type": "機車", "dist": "\u4e2d\u5c71\u5340"}, "geometry": {"type": "Point", "coordinates": [121.5301871, 25.0498163]}, "id": "119"}, {"type": "Feature", "properties": {"operator": "", "name": "\u5049\u6046\u6709\u9650\u516c\u53f8", "address": "\u81fa\u5317\u5e02\u4e2d\u5c71\u5340\u5409\u6797\u8def408\u865f", "charging_stand_amount": 0, "battery_amount": 0, "vehicle_type": "機車", "dist": "\u4e2d\u5c71\u5340"}, "geometry": {"type": "Point", "coordinates": [121.5302035, 25.0655378]}, "id": "120"}, {"type": "Feature", "properties": {"operator": "", "name": "\u5049\u7fd4\u6a5f\u8eca\u884c", "address": "\u81fa\u5317\u5e02\u4e2d\u5c71\u5340\u9577\u5b89\u6771\u8def1\u6bb545\u865f", "charging_stand_amount": 0, "battery_amount": 0, "vehicle_type": "機車", "dist": "\u4e2d\u5c71\u5340"}, "geometry": {"type": "Point", "coordinates": [121.5405885, 25.0484736]}, "id": "121"}, {"type": "Feature", "properties": {"operator": "", "name": "\u5c55\u6b23\u91cd\u8eca\u958b\u767c\u6709\u9650\u516c\u53f8", "address": "\u81fa\u5317\u5e02\u4e2d\u5c71\u5340\u9577\u6625\u8def131-1\u865f", "charging_stand_amount": 0, "battery_amount": 0, "vehicle_type": "機車", "dist": "\u4e2d\u5c71\u5340"}, "geometry": {"type": "Point", "coordinates": [121.5308208, 25.0549702]}, "id": "122"}, {"type": "Feature", "properties": {"operator": "", "name": "\u4e2d\u5c71\u5340\u6e05\u6f54\u968a\u9577\u5b89\u5206\u968a", "address": "\u81fa\u5317\u5e02\u4e2d\u5c71\u5340\u5efa\u570b\u5317\u8def1\u6bb5\u81e85-1\u865f", "charging_stand_amount": 0, "battery_amount": 0, "vehicle_type": "機車", "dist": "\u4e2d\u5c71\u5340"}, "geometry": {"type": "Point", "coordinates": [121.5442756, 25.0479928]}, "id": "123"}, {"type": "Feature", "properties": {"operator": "", "name": "\u6e9d\u4e00\u6e05\u6f54\u5206\u968a", "address": "\u81fa\u5317\u5e02\u4e2d\u5c71\u5340\u5efa\u570b\u5317\u8def2\u6bb563\u865f\u5c0d\u9762", "charging_stand_amount": 0, "battery_amount": 0, "vehicle_type": "機車", "dist": "\u4e2d\u5c71\u5340"}, "geometry": {"type": "Point", "coordinates": [121.5372863, 25.0558287]}, "id": "124"}, {"type": "Feature", "properties": {"operator": "", "name": "\u69ae\u661f\u82b1\u5712\u5730\u4e0b\u505c\u8eca\u5834", "address": "\u81fa\u5317\u5e02\u4e2d\u5c71\u5340\u5efa\u570b\u5317\u8def3\u6bb539\u865f", "charging_stand_amount": 0, "battery_amount": 0, "vehicle_type": "機車", "dist": "\u4e2d\u5c71\u5340"}, "geometry": {"type": "Point", "coordinates": [121.5377847, 25.0640384]}, "id": "125"}, {"type": "Feature", "properties": {"operator": "", "name": "\u6c11\u4e00\u6e05\u6f54\u5206\u968a", "address": "\u81fa\u5317\u5e02\u4e2d\u5c71\u5340\u5efa\u570b\u5317\u8def3\u6bb596\u4e4b1\u865f", "charging_stand_amount": 0, "battery_amount": 0, "vehicle_type": "機車", "dist": "\u4e2d\u5c71\u5340"}, "geometry": {"type": "Point", "coordinates": [121.5340276, 25.0670235]}, "id": "126"}, {"type": "Feature", "properties": {"operator": "", "name": "\u4e2d\u5c71\u6e05\u6f54\u5206\u968a", "address": "\u81fa\u5317\u5e02\u4e2d\u5c71\u5340\u65b0\u751f\u5317\u8def2\u6bb5\u81e830-1\u865f", "charging_stand_amount": 0, "battery_amount": 0, "vehicle_type": "機車", "dist": "\u4e2d\u5c71\u5340"}, "geometry": {"type": "Point", "coordinates": [121.5273176, 25.0574829]}, "id": "127"}, {"type": "Feature", "properties": {"operator": "", "name": "\u65b0\u661f\u6a5f\u8eca\u884c", "address": "\u81fa\u5317\u5e02\u4e2d\u5c71\u5340\u65b0\u751f\u5317\u8def3\u6bb591\u865f", "charging_stand_amount": 0, "battery_amount": 0, "vehicle_type": "機車", "dist": "\u4e2d\u5c71\u5340"}, "geometry": {"type": "Point", "coordinates": [121.5281644, 25.0677066]}, "id": "128"}, {"type": "Feature", "properties": {"operator": "", "name": "\u4e2d\u83ef\u6c7d\u8eca\u5e02\u6c11\u670d\u52d9\u5ee0", "address": "\u81fa\u5317\u5e02\u4e2d\u5c71\u5340\u65b0\u751f\u5317\u8def\u4e00\u6bb525\u865f\u4e4b5", "charging_stand_amount": 0, "battery_amount": 0, "vehicle_type": "機車", "dist": "\u4e2d\u5c71\u5340"}, "geometry": {"type": "Point", "coordinates": [121.5315595, 25.0469733]}, "id": "129"}, {"type": "Feature", "properties": {"operator": "", "name": "\u6ff1\u6c5f\u570b\u4e2d\u5730\u4e0b\u505c\u8eca\u5834", "address": "\u81fa\u5317\u5e02\u4e2d\u5c71\u5340\u6a02\u7fa42\u8def266\u5df71\u865f\u5730\u4e0b\u505c\u8eca\u5834", "charging_stand_amount": 0, "battery_amount": 0, "vehicle_type": "機車", "dist": "\u4e2d\u5c71\u5340"}, "geometry": {"type": "Point", "coordinates": [121.5616506, 25.0794297]}, "id": "130"}, {"type": "Feature", "properties": {"operator": "", "name": "\u8208\u7fa8\u6a5f\u8eca\u884c", "address": "\u81fa\u5317\u5e02\u4e2d\u5c71\u5340\u8208\u5b89\u885765\u865f", "charging_stand_amount": 0, "battery_amount": 0, "vehicle_type": "機車", "dist": "\u4e2d\u5c71\u5340"}, "geometry": {"type": "Point", "coordinates": [121.5426009, 25.0562738]}, "id": "131"}, {"type": "Feature", "properties": {"operator": "", "name": "\u540d\u4f73\u8eca\u696d\u884c", "address": "\u81fa\u5317\u5e02\u4e2d\u5c71\u5340\u9326\u5dde\u8857310\u865f", "charging_stand_amount": 0, "battery_amount": 0, "vehicle_type": "機車", "dist": "\u4e2d\u5c71\u5340"}, "geometry": {"type": "Point", "coordinates": [121.5375455, 25.060194]}, "id": "132"}, {"type": "Feature", "properties": {"operator": "", "name": "\u6c11\u4e8c\u6e05\u6f54\u5206\u968a", "address": "\u81fa\u5317\u5e02\u4e2d\u5c71\u5340\u9326\u5dde\u8857\u81e8306\u865f", "charging_stand_amount": 0, "battery_amount": 0, "vehicle_type": "機車", "dist": "\u4e2d\u5c71\u5340"}, "geometry": {"type": "Point", "coordinates": [121.5337764, 25.060337]}, "id": "133"}, {"type": "Feature", "properties": {"operator": "", "name": "\u6771\u821c\u6a5f\u8eca\u884c", "address": "\u81fa\u5317\u5e02\u4e2d\u5c71\u5340\u9f8d\u6c5f\u8def16\u865f", "charging_stand_amount": 0, "battery_amount": 0, "vehicle_type": "機車", "dist": "\u4e2d\u5c71\u5340"}, "geometry": {"type": "Point", "coordinates": [121.5402671, 25.047826]}, "id": "134"}, {"type": "Feature", "properties": {"operator": "", "name": "\u8fb2\u5b89\u6a5f\u8eca\u6709\u9650\u516c\u53f8", "address": "\u81fa\u5317\u5e02\u4e2d\u5c71\u5340\u9f8d\u6c5f\u8def375\u865f", "charging_stand_amount": 0, "battery_amount": 0, "vehicle_type": "機車", "dist": "\u4e2d\u5c71\u5340"}, "geometry": {"type": "Point", "coordinates": [121.5411313, 25.0647002]}, "id": "135"}, {"type": "Feature", "properties": {"operator": "", "name": "\u516c\u9928\u6e05\u6f54\u5206\u968a", "address": "\u81fa\u5317\u5e02\u4e2d\u6b63\u5340\u6c34\u6e90\u8def\u81e82\u865f", "charging_stand_amount": 0, "battery_amount": 0, "vehicle_type": "機車", "dist": "\u4e2d\u6b63\u5340"}, "geometry": {"type": "Point", "coordinates": [121.5170584, 25.0216809]}, "id": "136"}, {"type": "Feature", "properties": {"operator": "", "name": "\u8208\u73cd\u6a5f\u8eca\u884c", "address": "\u81fa\u5317\u5e02\u4e2d\u6b63\u5340\u6c40\u5dde\u8def1\u6bb5204\u865f", "charging_stand_amount": 0, "battery_amount": 0, "vehicle_type": "機車", "dist": "\u4e2d\u6b63\u5340"}, "geometry": {"type": "Point", "coordinates": [121.511146, 25.0269395]}, "id": "137"}, {"type": "Feature", "properties": {"operator": "", "name": "\u4e16\u8f2a\u6a5f\u8eca\u884c", "address": "\u81fa\u5317\u5e02\u4e2d\u6b63\u5340\u6c40\u5dde\u8def2\u6bb576\u865f", "charging_stand_amount": 0, "battery_amount": 0, "vehicle_type": "機車", "dist": "\u4e2d\u6b63\u5340"}, "geometry": {"type": "Point", "coordinates": [121.518687, 25.0250571]}, "id": "138"}, {"type": "Feature", "properties": {"operator": "", "name": "\u6176\u767c\u8eca\u696d\u6709\u9650\u516c\u53f8", "address": "\u81fa\u5317\u5e02\u4e2d\u6b63\u5340\u6c40\u6d32\u8def1\u6bb5182\u865f", "charging_stand_amount": 0, "battery_amount": 0, "vehicle_type": "機車", "dist": "\u4e2d\u6b63\u5340"}, "geometry": {"type": "Point", "coordinates": [121.5226511, 25.0235855]}, "id": "139"}, {"type": "Feature", "properties": {"operator": "", "name": "\u5fe0\u8c6a\u8eca\u696d\u6709\u9650\u516c\u53f8", "address": "\u81fa\u5317\u5e02\u4e2d\u6b63\u5340\u5fe0\u5b5d\u6771\u8def2\u6bb531\u865f", "charging_stand_amount": 0, "battery_amount": 0, "vehicle_type": "機車", "dist": "\u4e2d\u6b63\u5340"}, "geometry": {"type": "Point", "coordinates": [121.5275797, 25.0437045]}, "id": "140"}, {"type": "Feature", "properties": {"operator": "", "name": "\u6cb3\u5824\u91cc\u8fa6\u516c\u5ba4", "address": "\u81fa\u5317\u5e02\u4e2d\u6b63\u5340\u91d1\u9580\u885711\u4e4b1\u865f", "charging_stand_amount": 0, "battery_amount": 0, "vehicle_type": "機車", "dist": "\u4e2d\u6b63\u5340"}, "geometry": {"type": "Point", "coordinates": [121.5233474, 25.0215783]}, "id": "141"}, {"type": "Feature", "properties": {"operator": "", "name": "\u7db2\u6eaa\u91cc\u8fa6\u516c\u5ba4", "address": "\u81fa\u5317\u5e02\u4e2d\u6b63\u5340\u726f\u5dba\u8857165\u865f", "charging_stand_amount": 0, "battery_amount": 0, "vehicle_type": "機車", "dist": "\u4e2d\u6b63\u5340"}, "geometry": {"type": "Point", "coordinates": [121.5192212, 25.0220333]}, "id": "142"}, {"type": "Feature", "properties": {"operator": "", "name": "\u540e\u91cc\u8eca\u696d\u6709\u9650\u516c\u53f8", "address": "\u81fa\u5317\u5e02\u4e2d\u6b63\u5340\u726f\u5dba\u885747\u865f", "charging_stand_amount": 0, "battery_amount": 0, "vehicle_type": "機車", "dist": "\u4e2d\u6b63\u5340"}, "geometry": {"type": "Point", "coordinates": [121.5166925, 25.073409]}, "id": "143"}, {"type": "Feature", "properties": {"operator": "", "name": "\u677e\u5927\u8eca\u696d\u6709\u9650\u516c\u53f8", "address": "\u81fa\u5317\u5e02\u4e2d\u6b63\u5340\u726f\u5dba\u885761-3\u865f", "charging_stand_amount": 0, "battery_amount": 0, "vehicle_type": "機車", "dist": "\u4e2d\u6b63\u5340"}, "geometry": {"type": "Point", "coordinates": [121.5171513, 25.0293195]}, "id": "144"}, {"type": "Feature", "properties": {"operator": "", "name": "\u7d18\u76ca\u6a5f\u8eca\u884c", "address": "\u81fa\u5317\u5e02\u4e2d\u6b63\u5340\u726f\u5dba\u885777\u865f", "charging_stand_amount": 0, "battery_amount": 0, "vehicle_type": "機車", "dist": "\u4e2d\u6b63\u5340"}, "geometry": {"type": "Point", "coordinates": [121.5180137, 25.0282127]}, "id": "145"}, {"type": "Feature", "properties": {"operator": "", "name": "\u81f4\u76db\u570b\u969b\u8eca\u696d\u6709\u9650\u516c\u53f8", "address": "\u81fa\u5317\u5e02\u4e2d\u6b63\u5340\u91cd\u6176\u5357\u8def3\u6bb5130-1\u3001130-2\u865f", "charging_stand_amount": 0, "battery_amount": 0, "vehicle_type": "機車", "dist": "\u4e2d\u6b63\u5340"}, "geometry": {"type": "Point", "coordinates": [121.5165213, 25.0244455]}, "id": "146"}, {"type": "Feature", "properties": {"operator": "", "name": "\u9686\u767c\u8eca\u696d\u6709\u9650\u516c\u53f8", "address": "\u81fa\u5317\u5e02\u4e2d\u6b63\u5340\u91cd\u6176\u5357\u8def3\u6bb5135\u865f", "charging_stand_amount": 0, "battery_amount": 0, "vehicle_type": "機車", "dist": "\u4e2d\u6b63\u5340"}, "geometry": {"type": "Point", "coordinates": [121.5170577, 25.0237441]}, "id": "147"}, {"type": "Feature", "properties": {"operator": "", "name": "\u7acb\u8c50\u6a5f\u8eca\u884c", "address": "\u81fa\u5317\u5e02\u4e2d\u6b63\u5340\u91cd\u6176\u5357\u8def3\u6bb532\u865f", "charging_stand_amount": 0, "battery_amount": 0, "vehicle_type": "機車", "dist": "\u4e2d\u6b63\u5340"}, "geometry": {"type": "Point", "coordinates": [121.5154061, 25.0286888]}, "id": "148"}, {"type": "Feature", "properties": {"operator": "", "name": "\u4e09\u4e4b\u4e09\u8eca\u696d\u6709\u9650\u516c\u53f8", "address": "\u81fa\u5317\u5e02\u4e2d\u6b63\u5340\u91cd\u6176\u5357\u8def3\u6bb556\u865f", "charging_stand_amount": 0, "battery_amount": 0, "vehicle_type": "機車", "dist": "\u4e2d\u6b63\u5340"}, "geometry": {"type": "Point", "coordinates": [121.5157092, 25.0276335]}, "id": "149"}, {"type": "Feature", "properties": {"operator": "", "name": "\u924d\u52dd\u8eca\u696d\u6709\u9650\u516c\u53f8", "address": "\u81fa\u5317\u5e02\u4e2d\u6b63\u5340\u5e2b\u5927\u8def146\u865f", "charging_stand_amount": 0, "battery_amount": 0, "vehicle_type": "機車", "dist": "\u4e2d\u6b63\u5340"}, "geometry": {"type": "Point", "coordinates": [121.505613, 25.129255]}, "id": "150"}, {"type": "Feature", "properties": {"operator": "", "name": "\u6cc9\u5dde\u6e05\u6f54\u5206\u968a", "address": "\u81fa\u5317\u5e02\u4e2d\u6b63\u5340\u60e0\u5b89\u885747\u865f", "charging_stand_amount": 0, "battery_amount": 0, "vehicle_type": "機車", "dist": "\u4e2d\u6b63\u5340"}, "geometry": {"type": "Point", "coordinates": [121.5166925, 25.073409]}, "id": "151"}, {"type": "Feature", "properties": {"operator": "", "name": "\u81fa\u5317\u5e02\u7acb\u5927\u5b78(\u535a\u611b\u6821\u5340)", "address": "\u81fa\u5317\u5e02\u4e2d\u6b63\u5340\u611b\u570b\u897f\u8def1\u865f", "charging_stand_amount": 0, "battery_amount": 0, "vehicle_type": "機車", "dist": "\u4e2d\u6b63\u5340"}, "geometry": {"type": "Point", "coordinates": [121.5142953, 25.0356043]}, "id": "152"}, {"type": "Feature", "properties": {"operator": "", "name": "\u4e00\u6210\u6a5f\u8eca\u6709\u9650\u516c\u53f8", "address": "\u81fa\u5317\u5e02\u4e2d\u6b63\u5340\u65b0\u751f\u5357\u8def1\u6bb5134-1\u865f", "charging_stand_amount": 0, "battery_amount": 0, "vehicle_type": "機車", "dist": "\u4e2d\u6b63\u5340"}, "geometry": {"type": "Point", "coordinates": [121.5325183, 25.0366337]}, "id": "153"}, {"type": "Feature", "properties": {"operator": "", "name": "\u570b\u88d5\u6a5f\u8eca\u884c", "address": "\u81fa\u5317\u5e02\u4e2d\u6b63\u5340\u6fdf\u5357\u8def2\u6bb573\u865f", "charging_stand_amount": 0, "battery_amount": 0, "vehicle_type": "機車", "dist": "\u4e2d\u6b63\u5340"}, "geometry": {"type": "Point", "coordinates": [121.532517, 25.040405]}, "id": "154"}, {"type": "Feature", "properties": {"operator": "", "name": "\u8208\u967d\u6a5f\u8eca\u884c", "address": "\u81fa\u5317\u5e02\u5167\u6e56\u5340\u4e94\u5206\u885739\u865f", "charging_stand_amount": 0, "battery_amount": 0, "vehicle_type": "機車", "dist": "\u5167\u6e56\u5340"}, "geometry": {"type": "Point", "coordinates": [121.6136336, 25.0676162]}, "id": "155"}, {"type": "Feature", "properties": {"operator": "", "name": "\u93a7\u8a6e\u6a5f\u8eca\u884c", "address": "\u81fa\u5317\u5e02\u5167\u6e56\u5340\u5167\u6e56\u8def1\u6bb531\u865f", "charging_stand_amount": 0, "battery_amount": 0, "vehicle_type": "機車", "dist": "\u5167\u6e56\u5340"}, "geometry": {"type": "Point", "coordinates": [121.5909027, 25.0689422]}, "id": "156"}, {"type": "Feature", "properties": {"operator": "", "name": "\u6b23\u9686\u6a5f\u8eca\u884c", "address": "\u81fa\u5317\u5e02\u5167\u6e56\u5340\u5167\u6e56\u8def1\u6bb5411\u5df711\u865f", "charging_stand_amount": 0, "battery_amount": 0, "vehicle_type": "機車", "dist": "\u5167\u6e56\u5340"}, "geometry": {"type": "Point", "coordinates": [121.5909027, 25.0689422]}, "id": "157"}, {"type": "Feature", "properties": {"operator": "", "name": "\u739f\u6a3a\u6a5f\u8eca\u884c", "address": "\u81fa\u5317\u5e02\u5167\u6e56\u5340\u5167\u6e56\u8def1\u6bb591\u5df77\u865f", "charging_stand_amount": 0, "battery_amount": 0, "vehicle_type": "機車", "dist": "\u5167\u6e56\u5340"}, "geometry": {"type": "Point", "coordinates": [121.5909027, 25.0689422]}, "id": "158"}, {"type": "Feature", "properties": {"operator": "", "name": "\u718a\u5927\u8eca\u696d\u884c", "address": "\u81fa\u5317\u5e02\u5167\u6e56\u5340\u5167\u6e56\u8def2\u6bb5114\u865f", "charging_stand_amount": 0, "battery_amount": 0, "vehicle_type": "機車", "dist": "\u5167\u6e56\u5340"}, "geometry": {"type": "Point", "coordinates": [121.5819205, 25.0793594]}, "id": "159"}, {"type": "Feature", "properties": {"operator": "", "name": "\u570b\u751f\u6a5f\u8eca\u884c", "address": "\u81fa\u5317\u5e02\u5167\u6e56\u5340\u5167\u6e56\u8def2\u6bb567\u865f", "charging_stand_amount": 0, "battery_amount": 0, "vehicle_type": "機車", "dist": "\u5167\u6e56\u5340"}, "geometry": {"type": "Point", "coordinates": [121.582208, 25.079749]}, "id": "160"}, {"type": "Feature", "properties": {"operator": "", "name": "\u5409\u5ddd\u4e8c\u8f2a\u5de5\u4f5c\u5ba4", "address": "\u81fa\u5317\u5e02\u5167\u6e56\u5340\u5167\u6e56\u8def3\u6bb559\u5df717\u865f", "charging_stand_amount": 0, "battery_amount": 0, "vehicle_type": "機車", "dist": "\u5167\u6e56\u5340"}, "geometry": {"type": "Point", "coordinates": [121.591629, 25.085571]}, "id": "161"}, {"type": "Feature", "properties": {"operator": "", "name": "\u4e2d\u83ef\u6c7d\u8eca\u5167\u6e561\u670d\u52d9\u5ee0", "address": "\u81fa\u5317\u5e02\u5167\u6e56\u5340\u5167\u6e56\u8def\u4e00\u6bb5411\u5df756\u865f", "charging_stand_amount": 0, "battery_amount": 0, "vehicle_type": "機車", "dist": "\u5167\u6e56\u5340"}, "geometry": {"type": "Point", "coordinates": [121.5714144, 25.0831294]}, "id": "162"}, {"type": "Feature", "properties": {"operator": "", "name": "\u5764\u9054\u6a5f\u8eca\u884c", "address": "\u81fa\u5317\u5e02\u5167\u6e56\u5340\u6587\u6e56\u885775\u865f", "charging_stand_amount": 0, "battery_amount": 0, "vehicle_type": "機車", "dist": "\u5167\u6e56\u5340"}, "geometry": {"type": "Point", "coordinates": [121.5636636, 25.0867245]}, "id": "163"}, {"type": "Feature", "properties": {"operator": "", "name": "\u5167\u6e56\u8eca\u696d\u6709\u9650\u516c\u53f8", "address": "\u81fa\u5317\u5e02\u5167\u6e56\u5340\u6587\u5fb7\u8def18\u865f", "charging_stand_amount": 0, "battery_amount": 0, "vehicle_type": "機車", "dist": "\u5167\u6e56\u5340"}, "geometry": {"type": "Point", "coordinates": [121.5792875, 25.0783579]}, "id": "164"}, {"type": "Feature", "properties": {"operator": "", "name": "\u65b0\u4e09\u548c\u6a5f\u8eca\u884c", "address": "\u81fa\u5317\u5e02\u5167\u6e56\u5340\u6587\u5fb7\u8def22\u5df71\u865f", "charging_stand_amount": 0, "battery_amount": 0, "vehicle_type": "機車", "dist": "\u5167\u6e56\u5340"}, "geometry": {"type": "Point", "coordinates": [121.5794135, 25.0782047]}, "id": "165"}, {"type": "Feature", "properties": {"operator": "", "name": "\u56db\u7dad\u901a\u8eca\u696d\u6709\u9650\u516c\u53f8", "address": "\u81fa\u5317\u5e02\u5167\u6e56\u5340\u6c11\u6b0a\u6771\u8def6\u6bb5128\u865f", "charging_stand_amount": 0, "battery_amount": 0, "vehicle_type": "機車", "dist": "\u5167\u6e56\u5340"}, "geometry": {"type": "Point", "coordinates": [121.587541, 25.068847]}, "id": "166"}, {"type": "Feature", "properties": {"operator": "", "name": "\u8449\u967d\u8eca\u696d\u884c", "address": "\u81fa\u5317\u5e02\u5167\u6e56\u5340\u6c11\u6b0a\u6771\u8def6\u6bb5320\u865f", "charging_stand_amount": 0, "battery_amount": 0, "vehicle_type": "機車", "dist": "\u5167\u6e56\u5340"}, "geometry": {"type": "Point", "coordinates": [121.6060457, 25.0728599]}, "id": "167"}, {"type": "Feature", "properties": {"operator": "", "name": "\u8aa0\u9d3b\u6a5f\u8eca\u884c", "address": "\u81fa\u5317\u5e02\u5167\u6e56\u5340\u6c11\u6b0a\u6771\u8def6\u6bb560\u865f", "charging_stand_amount": 0, "battery_amount": 0, "vehicle_type": "機車", "dist": "\u5167\u6e56\u5340"}, "geometry": {"type": "Point", "coordinates": [121.5848108, 25.0686302]}, "id": "168"}, {"type": "Feature", "properties": {"operator": "", "name": "\u6587\u5fb7\u6e05\u6f54\u5206\u968a", "address": "\u81fa\u5317\u5e02\u5167\u6e56\u5340\u6c11\u6b0a\u6771\u8def6\u6bb5\u81e810\u4e4b2\u865f", "charging_stand_amount": 0, "battery_amount": 0, "vehicle_type": "機車", "dist": "\u5167\u6e56\u5340"}, "geometry": {"type": "Point", "coordinates": [121.5892012, 25.0690834]}, "id": "169"}, {"type": "Feature", "properties": {"operator": "", "name": "\u5b89\u6cf0\u91cc\u8fa6\u516c\u5ba4", "address": "\u81fa\u5317\u5e02\u5167\u6e56\u5340\u5b89\u6cf0\u885749\u5df71\u865f1\u6a13", "charging_stand_amount": 0, "battery_amount": 0, "vehicle_type": "機車", "dist": "\u5167\u6e56\u5340"}, "geometry": {"type": "Point", "coordinates": [121.6176432, 25.0740793]}, "id": "170"}, {"type": "Feature", "properties": {"operator": "", "name": "\u5343\u8c50\u8eca\u696d\u884c", "address": "\u81fa\u5317\u5e02\u5167\u6e56\u5340\u5b89\u5eb7\u8def191\u865f", "charging_stand_amount": 0, "battery_amount": 0, "vehicle_type": "機車", "dist": "\u5167\u6e56\u5340"}, "geometry": {"type": "Point", "coordinates": [121.611528, 25.066072]}, "id": "171"}, {"type": "Feature", "properties": {"operator": "", "name": "\u5167\u6e56\u5783\u573e\u711a\u5316\u5ee0", "address": "\u81fa\u5317\u5e02\u5167\u6e56\u5340\u5b89\u5eb7\u8def290\u865f", "charging_stand_amount": 0, "battery_amount": 0, "vehicle_type": "機車", "dist": "\u5167\u6e56\u5340"}, "geometry": {"type": "Point", "coordinates": [121.6045321, 25.062212]}, "id": "172"}, {"type": "Feature", "properties": {"operator": "", "name": "\u767e\u9245\u6a5f\u8eca\u884c", "address": "\u81fa\u5317\u5e02\u5167\u6e56\u5340\u6210\u529f\u8def2\u6bb5314\u865f", "charging_stand_amount": 0, "battery_amount": 0, "vehicle_type": "機車", "dist": "\u5167\u6e56\u5340"}, "geometry": {"type": "Point", "coordinates": [121.5903883, 25.0672429]}, "id": "173"}, {"type": "Feature", "properties": {"operator": "", "name": "\u65e5\u76db\u8eca\u696d\u6709\u9650\u516c\u53f8", "address": "\u81fa\u5317\u5e02\u5167\u6e56\u5340\u6210\u529f\u8def3\u6bb573\u865f", "charging_stand_amount": 0, "battery_amount": 0, "vehicle_type": "機車", "dist": "\u5167\u6e56\u5340"}, "geometry": {"type": "Point", "coordinates": [121.59011, 25.077904]}, "id": "174"}, {"type": "Feature", "properties": {"operator": "", "name": "\u67cf\u6210\u6a5f\u8eca\u884c", "address": "\u81fa\u5317\u5e02\u5167\u6e56\u5340\u6210\u529f\u8def4\u6bb5331\u865f", "charging_stand_amount": 0, "battery_amount": 0, "vehicle_type": "機車", "dist": "\u5167\u6e56\u5340"}, "geometry": {"type": "Point", "coordinates": [121.5992373, 25.0844694]}, "id": "175"}, {"type": "Feature", "properties": {"operator": "", "name": "\u5927\u6e56\u516c\u5712\u5730\u4e0b\u505c\u8eca\u5834", "address": "\u81fa\u5317\u5e02\u5167\u6e56\u5340\u6210\u529f\u8def5\u6bb57\u865f", "charging_stand_amount": 0, "battery_amount": 0, "vehicle_type": "機車", "dist": "\u5167\u6e56\u5340"}, "geometry": {"type": "Point", "coordinates": [121.6020551, 25.0835653]}, "id": "176"}, {"type": "Feature", "properties": {"operator": "", "name": "\u6625\u7433\u570b\u969b\u8eca\u696d\u6709\u9650\u516c\u53f8", "address": "\u81fa\u5317\u5e02\u5167\u6e56\u5340\u6c5f\u5357\u885728\u865f", "charging_stand_amount": 0, "battery_amount": 0, "vehicle_type": "機車", "dist": "\u5167\u6e56\u5340"}, "geometry": {"type": "Point", "coordinates": [121.5776773, 25.0776602]}, "id": "177"},